id,Park Code,Name,Street,Suburb,Easting,Northing,Latitude,Longitude
1,D0228,7TH BRIGADE PARK,HAMILTON RD,CHERMSIDE,"503,826.69","6,971,467.72",-27.38006149,153.0387005
2,D0021,A. J. JONES RECREATION RESERVE,CORNWALL ST,GREENSLOPES,"504,302.76","6,957,798.83",-27.50346312,153.0435636
3,D0696,A.R.C.HILL PARK,GOSS RD,VIRGINIA,"505,521.79","6,970,985.33",-27.38441077,153.0558459
4,D0432,ABBEVILLE STREET PARK,ABBEVILLE ST,UPR MT GRAVATT,"508,786.46","6,953,249.37",-27.54451364,153.0889922
5,D1009,ABBOTT STREET PARK,ABBOTT ST,CAMP HILL,"508,478.22","6,958,211.20",-27.49972065,153.0858355
6,D1637,ABLINGTON WAY PARK,ABLINGTON WAY,CARINDALE,"511,898.23","6,955,739.24",-27.52201163,153.1204848
7,D3114,ACACIA FOREST PARK,ACACIA RD,KARAWATHA,"509,478.30","6,944,424.17",-27.62418129,153.0960688
8,D0409,ACACIA PARK,CARMODY RD,ST LUCIA,"500,785.95","6,958,275.55",-27.4991659,153.0079571
9,D1464,ACORN CIRCUIT PARK,BOSS RD,INALA,"496,696.66","6,946,156.67",-27.60856987,152.9665232
10,D2101,ADA STREET PARK,ADA ST,TOOWONG,"497,699.60","6,961,091.12",-27.47374527,152.9767157
11,D2101,ADA STREET PARK,ADA ST,TOOWONG,"497,824.78","6,961,048.21",-27.47413294,152.9779827
12,D2058,ADDISON AVENUE PARK,ADDISON AVE,BULIMBA,"505,215.65","6,963,571.15",-27.45134757,153.0527815
13,D1784,ADMIRALTY TOWERS 11 PARK,QUEEN ST,BRISBANE,"503,127.38","6,962,128.50",-27.46437818,153.0316523
14,D1518,ADVANX STREET PARK,MIRBELIA ST,KENMORE HILLS,"493,645.18","6,958,050.90",-27.50117938,152.9356615
15,D0893,AIRLIE ROAD PARK,AIRLIE RD,PULLENVALE,"489,359.27","6,954,558.40",-27.53268258,152.8922387
16,D1280,AITCHESON STREET PARK (NO.101),AITCHESON ST,MOGGILL,"485,830.52","6,948,878.26",-27.5839297,152.8564355
17,D0757,AITCHESON STREET PARK (NO.5-6),AITCHESON ST,MOGGILL,"486,748.52","6,948,471.23",-27.58761357,152.8657321
18,D1515,AKUNA STREET PARK,AKUNA ST,KENMORE,"495,091.27","6,956,735.63",-27.51305965,152.9502968
19,D1015,ALAN WILLING PLACE PARK,BERNARRA ST,THE GAP,"496,002.87","6,963,939.89",-27.44802268,152.9595509
20,D0844,ALANA COURT PARK,ALANA CT,CHAPEL HILL,"494,880.91","6,958,408.37",-27.49809922,152.948307
21,D1778,ALBAN STREET PARK,BOUNDARY RD,OXLEY,"498,642.17","6,950,376.04",-27.57048145,152.9862442
22,D1414,ALBANY CREEK RD (NOS 97A-135) PARK,ALBANY CREEK RD,ASPLEY,"500,999.98","6,973,683.67",-27.36006063,153.0101113
23,D1719,ALBANY CREEK ROAD PARK (NO.150),SPENCER ST,ASPLEY,"500,653.42","6,973,293.06",-27.36358727,153.0066073
24,D1709,ALBANY CREEK ROAD PARK (NO.151),ALBANY CREEK RD,ASPLEY,"500,672.28","6,973,869.43",-27.35838373,153.0067977
25,D1908,ALBANY CREEK ROAD PARK (NO.245),ALBANY CREEK RD,BRIDGEMAN DOWNS,"500,294.68","6,973,970.17",-27.35747439,153.0029795
26,D1342,ALBANY CREEK ROAD PARK (NO.76),ALBANY CREEK RD,ASPLEY,"501,251.23","6,973,193.45",-27.36448613,153.0126523
27,D0800,ALBANY CREEK ROAD RESERVE,ALBANY CREEK RD,BRIDGEMAN DOWNS,"498,494.61","6,974,581.34",-27.35195585,152.9847793
28,D0464,ALBERT BISHOP PARK,HEDLEY AVE,NUNDAH,"506,905.28","6,968,604.77",-27.40589631,153.0698515
29,D0295,ALBERT EDWARD PADDON PARK,BLACKWOOD RD,DEAGON,"506,287.67","6,977,051.49",-27.32964131,153.0635604
30,D0295,ALBERT EDWARD PADDON PARK,BLACKWOOD RD,DEAGON,"506,396.20","6,977,030.77",-27.32982786,153.0646577
31,D0504,ALBION OVERPASS PARK,ALBION RD,ALBION,"503,809.64","6,965,969.84",-27.42969676,153.0385454
32,D1307,ALBION PARK,CLUDEN PL,BRACKEN RIDGE,"502,176.28","6,977,502.62",-27.32558119,153.0219987
33,D1796,ALBION POST OFFICE PARK,SANDGATE RD,ALBION,"504,256.74","6,966,040.08",-27.42906133,153.0430688
34,D1077,ALCHERINGA PLACE PARK,ALCHERINGA PL,ROBERTSON,"505,316.48","6,951,426.86",-27.56098503,153.0538551
35,D1077,ALCHERINGA PLACE PARK,ALCHERINGA PL,ROBERTSON,"505,488.85","6,951,468.49",-27.56060851,153.055601
36,D1911,ALDERBURY PLACE PARK,KENILWORTH PL,CARINDALE,"511,920.64","6,955,886.03",-27.52068617,153.1207102
37,D0627,ALDERLEY GROVE PARK,CHELFORD ST,ALDERLEY,"500,760.38","6,967,057.50",-27.41988243,153.0076927
38,D0212,ALDREN STREET PARK,MARYLAND ST,STAFFORD HTS,"501,191.25","6,969,720.85",-27.39583719,153.0120492
39,D2054,ALEXANDER MACPHERSON PARK,JESSICA CRES,NUDGEE,"508,748.69","6,972,359.45",-27.37198818,153.0884719
40,D0542,ALEXANDER PARK,BEAUDESERT RD,MOOROOKA,"502,328.36","6,953,871.33",-27.53892509,153.0235813
41,D1039,ALEXANDER SMITH PLACE,GREY ST,SOUTH BRISBANE,"501,698.44","6,961,197.25",-27.47278807,153.0171912
42,D0141,ALFRED & LUCINDA BEST PARK,PAYNE RD,THE GAP,"495,431.61","6,963,898.35",-27.44839588,152.95377
43,D2186,ALGESTER ROAD (NO 751) PARK,ALGESTER RD,PARKINSON,"503,802.91","6,942,698.07",-27.6397921,153.0385505
44,D1024,ALGESTER ROAD PARK,ALGESTER RD,ALGESTER,"504,304.89","6,946,040.15",-27.60961902,153.0436272
45,D1722,ALGESTER ROAD PARK (NO.515),ALGESTER RD,PARKINSON,"502,878.79","6,943,063.74",-27.63649318,153.0291817
46,D1611,ALGOORI STREET PARK,ALGOORI ST,MORNINGSIDE,"507,759.44","6,962,311.82",-27.46270468,153.0785322
47,D1391,ALICE STREET PARK (ROAD RESERVE),ALICE ST,KEDRON,"502,931.02","6,969,850.34",-27.39466557,153.0296463
48,D1155,ALLAMANDA STREET PARK,ALLAMANDA ST,THE GAP,"493,694.35","6,963,712.44",-27.45054291,152.936428
49,D1148,ALLARA PLACE PARK,LOGAN RD,EIGHT MILE PLNS,"509,547.08","6,948,967.19",-27.58316734,153.09673
50,D0909,ALLAWAH STREET PARK,ALLAWAH ST,YEERONGPILLY,"501,038.94","6,954,786.20",-27.53066735,153.0105214
51,D0909,ALLAWAH STREET PARK,ALLAWAH ST,YEERONGPILLY,"501,062.83","6,954,734.03",-27.53113833,153.0107634
52,D1933,ALLINGHAM STREET PARK,ALLINGHAM ST,KURABY,"509,268.91","6,945,624.54",-27.61334613,153.0939372
53,D1129,ALLIRA CRESCENT PARK,BALCARA AVE,CARSELDINE,"502,592.85","6,975,505.90",-27.34360713,153.0262138
54,D1150,ALOOMBA STREET PARK,SUVLA ST,BALMORAL,"506,952.06","6,963,416.79",-27.45273337,153.0703545
55,D1181,ALPERTON ROAD PARK,ALPERTON RD,BURBANK,"515,397.87","6,950,154.04",-27.57239887,153.1559942
56,D2154,ALPHITONIA STREET PARK,ALPHITONIA ST,SVTN MILE ROCKS,"495,745.48","6,952,306.69",-27.55304578,152.9569055
57,D1749,ALPINE PLACE PARK,FOREST LAKE BLVD,FOREST LAKE,"496,265.92","6,945,769.89",-27.61227082,152.96208
58,D1273,ALPINIA PLACE PARK,KAMERUKA ST,CALAMVALE,"505,381.16","6,944,522.04",-27.62332035,153.0545412
59,D0734,ALTER STREET PARK,PLAZA ST,WYNNUM WEST,"515,597.18","6,962,952.79",-27.45685065,153.1578484
60,D1281,ALTHORP ROAD PARK,ALTHORP RD,BRIDGEMAN DOWNS,"499,504.14","6,972,466.41",-27.37105044,152.9949856
61,D1303,AMARINA AVENUE PARK (ROAD RESERVE),AMARINA AVE,ASHGROVE,"498,657.79","6,964,340.38",-27.44441222,152.9864179
62,D1303,AMARINA AVENUE PARK (ROAD RESERVE),AMARINA AVE,ASHGROVE,"498,747.83","6,964,329.86",-27.44450728,152.987329
63,D1303,AMARINA AVENUE PARK (ROAD RESERVE),AMARINA AVE,ASHGROVE,"498,780.08","6,964,467.86",-27.44326146,152.9876555
64,D1303,AMARINA AVENUE PARK (ROAD RESERVE),AMARINA AVE,ASHGROVE,"498,932.01","6,964,549.09",-27.44252828,152.989193
65,D1303,AMARINA AVENUE PARK (ROAD RESERVE),AMARINA AVE,ASHGROVE,"499,018.70","6,964,592.10",-27.44214005,152.9900702
66,D1381,AMAZON PLACE PARK,AMAZONS PL,JINDALEE,"495,290.19","6,954,794.52",-27.53151455,152.9527274
67,D0936,AMBERJACK STREET PARK,AMBERJACK ST,MANLY WEST,"516,255.67","6,961,233.22",-27.47236717,153.1645355
68,D0248,AMELIA PARK,MCCORD ST,GORDON PARK,"503,288.80","6,967,461.60",-27.41623043,153.0332715
69,D0058,AMETHYST STREET PARK,CARNELIAN ST,HOLLAND PARK,"507,612.43","6,956,509.95",-27.51508446,153.0770808
70,D0211,AMOTT STREET PARK,RINGROSE ST,STAFFORD HTS,"501,605.93","6,969,348.61",-27.39919742,153.0162441
71,D1469,ANCASTER ROAD PARK,MCGREGOR WAY,FERNY GROVE,"491,734.40","6,968,775.65",-27.40434605,152.916389
72,D1431,ANDREW STREET PARK,ANDREW ST,BALMORAL,"506,510.15","6,963,489.69",-27.45207738,153.0658819
73,D1504,ANGELICA PLACE PARK,TARRAGON PL,FOREST LAKE,"495,737.04","6,945,994.08",-27.6104081,152.957199
74,D0911,ANNA SMITH OBE QUOTA PARK,KIDWELLY ST,CARINDALE,"510,507.92","6,957,743.69",-27.50392704,153.1063887
75,D1668,ANNANDALE STREET PARK,ANNANDALE ST,KEPERRA,"494,564.74","6,968,239.04",-27.40920483,152.9450171
76,D1253,ANNIE HIGHNESS PARKER PARK,KEATS ST,SUNNYBANK,"504,912.93","6,949,143.25",-27.58160269,153.0497765
77,D0709,ANSTEAD BUSHLAND RESERVE,CANTWELL ST,ANSTEAD,"485,912.66","6,953,184.21",-27.54505718,152.857318
78,D1592,ANTRIM STREET PARK,LIMERICK ST,ACACIA RIDGE,"502,165.03","6,947,783.86",-27.5938822,153.021938
79,D0467,ANZAC PARK,MT COOT-THA RD,TOOWONG,"498,020.95","6,960,447.79",-27.47955381,152.9799672
80,D1128,ANZAC ROAD PARK,GALLIPOLI RD,CARINA HEIGHTS,"509,044.95","6,958,328.30",-27.49865975,153.0915723
81,D1128,ANZAC ROAD PARK,GALLIPOLI RD,CARINA HEIGHTS,"509,226.19","6,958,411.37",-27.49790863,153.0934066
82,D0082,ANZAC SQUARE,ADELAIDE ST,BRISBANE,"502,632.93","6,961,891.05",-27.46652294,153.0266484
83,D0905,APHRODITE STREET PARK,APHRODITE ST,MANLY WEST,"516,234.78","6,962,697.63",-27.45962143,153.1645474
84,D1392,APPIA AVENUE PARK,APPIA AVE,SEVEN HILLS,"506,915.99","6,960,452.02",-27.47949944,153.0700064
85,D1981,APPLETON STREET PARK,OLIVE PL,CARINDALE,"511,794.29","6,954,279.26",-27.53519299,153.1194465
86,D0330,APPOLINE STREET PARK,ENGLEFIELD RD,OXLEY,"496,506.84","6,951,642.98",-27.55903989,152.9646155
87,D1089,ARBOR STREET PARK,TRAMWAY ST,FERNY GROVE,"493,851.81","6,968,712.28",-27.40492933,152.9378074
88,D1368,ARCADIA STREET PARK,PADSTOW RD,EIGHT MILE PLNS,"508,280.19","6,949,847.50",-27.57522845,153.083888
89,D0877,ARCHER PARADE PARK,CLIVEDEN AVE,CORINDA,"499,378.45","6,952,970.18",-27.54706245,152.9937045
90,D0877,ARCHER PARADE PARK,CLIVEDEN AVE,CORINDA,"499,395.12","6,952,699.97",-27.54950191,152.9938733
91,D0201,ARCHER STREET PARK,ARCHER ST,GORDON PARK,"502,465.59","6,966,857.88",-27.42168258,153.0249446
92,D1849,ARDES STREET PARK,ARDES ST,CHAPEL HILL,"494,849.13","6,958,615.46",-27.49608769,152.9478531
93,D2995,ARENGA STREET PARK,ARENGA ST,WAKERLEY,"515,049.44","6,960,799.35",-27.47629805,153.1523318
94,D1384,ARGYLE PLACE PARK,ARGYLE PL,FOREST LAKE,"495,844.09","6,944,482.42",-27.62368234,152.9578773
95,D0394,ARNWOOD STREET PARK,SUNSHINE AVE,TARRAGINDI,"504,071.46","6,956,619.16",-27.51411383,153.0412258
96,D1143,ARPEGE CRESCENT PARK,NARDIE ST,EIGHT MILE PLNS,"509,800.29","6,950,553.57",-27.56884394,153.0992825
97,D0976,ARRABRI AVENUE PARK,ARRABRI AVE,MT OMMANEY,"493,257.30","6,952,956.01",-27.54717372,152.931706
98,D0166,ASCOT PARK,KITCHENER RD,ASCOT,"506,197.10","6,965,973.87",-27.42965161,153.0627012
99,D0166,ASCOT PARK,KITCHENER RD,ASCOT,"506,339.72","6,965,860.45",-27.43067495,153.0641448
100,D1950,ASHGROVE AVENUE PARK,QUANDONG ST,ASHGROVE,"500,468.66","6,965,216.57",-27.43650259,153.0047421
101,D0188,ASHGROVE MEMORIAL PARK,KADANGA ST,ASHGROVE,"499,086.88","6,964,296.57",-27.4448081,152.9907599
102,D0628,ASHGROVE QUARRY PARK,ST JOHNS AVE,ASHGROVE,"496,513.74","6,964,346.87",-27.44434986,152.9647219
103,D0144,ASHGROVE SCENIC RESERVE,ST JOHNS AVE,ASHGROVE,"496,550.89","6,964,593.80",-27.44212069,152.9650985
104,D0186,ASHGROVE SPORTSGROUND PARK,ACACIA DR,ASHGROVE,"497,376.56","6,964,621.13",-27.44187577,152.9734536
105,D2166,ASHRIDGE ROAD PARK,MONIER RD,DARRA,"495,285.37","6,951,512.48",-27.5602143,152.9522418
106,D0217,ASPLEY REST PARK,GYMPIE RD,CARSELDINE,"501,435.91","6,973,932.18",-27.3571889,153.0148316
107,D1436,ASSEMBLY STREET PARK,ASSEMBLY ST,SALISBURY,"502,393.87","6,952,895.11",-27.54773823,153.0242466
108,D1446,ASSEMBLY STREET PARK (NO 75),ASSEMBLY ST,SALISBURY,"502,519.71","6,952,788.61",-27.54869946,153.0255214
109,D2073,ASTON STREET PARK,ASTON ST,TOOWONG,"498,994.09","6,959,291.14",-27.48999702,152.9898168
110,D1889,ATKINSON DRIVE RESERVE,MT CROSBY RD,KARANA DOWNS,"480,918.76","6,951,899.97",-27.55658988,152.8067178
111,D0331,ATTHOWS PARK,SUMNERS RD,DARRA,"494,623.75","6,951,539.61",-27.55996694,152.9455399
112,D0897,AUGUSTUS STREET PARK,FRANCIS ST,CORINDA,"497,496.59","6,954,114.08",-27.53673327,152.9746464
113,D1149,AUSTIN UHLMANN PARK,RICHMOND RD,MORNINGSIDE,"507,960.61","6,961,179.88",-27.47292262,153.0805756
114,D0919,AVONDALE PARK,BLYDE ST,SINNAMON PARK,"494,556.87","6,953,369.60",-27.54344574,152.9448707
115,D1809,BADRICK PARK,INWOOD PL,THE GAP,"493,970.42","6,965,699.28",-27.43213138,152.9389923
116,D1712,BALCARA AVENUE PARK,BALCARA AVE,CARSELDINE,"502,751.03","6,975,227.18",-27.34612319,153.0278136
117,D0907,BALD HILLS CREEK PARK,BRACKEN RIDGE RD,BRACKEN RIDGE,"503,574.28","6,979,310.68",-27.30925475,153.0361248
118,D0907,BALD HILLS CREEK PARK,BRACKEN RIDGE RD,BRACKEN RIDGE,"503,900.85","6,980,006.48",-27.30488692,153.0385041
119,D0326,BALFOUR PARK,WINSLOW ST,DARRA,"495,627.34","6,950,472.28",-27.56960622,152.9557021
120,D0970,BALIS STREET PARK,BALIS ST,HOLLAND PK WEST,"506,011.88","6,955,531.00",-27.52393046,153.0608791
121,D0778,BALLINDERRY STREET PARK,BALLINDERRY ST,EVERTON PARK,"498,313.88","6,969,526.09",-27.39759505,152.982945
122,D0028,BALMORAL PARK,WYNNUM RD,MORNINGSIDE,"506,582.85","6,961,267.72",-27.47213694,153.0666297
123,D1011,BALNAVE STREET PARK,BALNAVE ST,WYNNUM WEST,"514,771.61","6,963,617.15",-27.45086206,153.1494853
124,D0197,BANCROFT PARK,KELVIN GROVE RD,KELVIN GROVE,"500,594.25","6,964,410.85",-27.44377663,153.0060133
125,D1277,BANGALOW STREET PARK (NO.192),BANGALOW ST,BRIDGEMAN DOWNS,"500,128.87","6,973,119.53",-27.36515414,153.0013031
126,D1010,BANKS CRESCENT PARK,BANKS CRES,WYNNUM WEST,"514,803.06","6,963,563.58",-27.4513453,153.1498042
127,D0133,BANKS STREET RESERVE,VIEW ST,ALDERLEY,"499,745.81","6,965,477.04",-27.4341511,152.997428
128,D1513,BANKSIA AVENUE PARK,GREVILLEA RD,ASHGROVE,"497,790.40","6,964,475.27",-27.44319338,152.9776409
129,D1891,BANKSIA DRIVE RESERVE,BANKSIA DR,MT CROSBY,"481,850.83","6,956,026.80",-27.51832377,152.8157233
130,D1891,BANKSIA DRIVE RESERVE,BANKSIA DR,MT CROSBY,"482,106.80","6,956,316.04",-27.51743537,152.8192659
131,D0410,BANKSIA PARK,SIXTH AVE,ST LUCIA,"500,338.44","6,958,309.41",-27.49886043,153.0034264
132,D1296,BANKSIA VILLAGE PARK,BANKSIA CRCT,FOREST LAKE,"496,623.16","6,945,821.35",-27.61159694,152.9657774
133,D1133,BANNING STREET PARK,BANNING ST,WISHART,"509,443.48","6,953,085.62",-27.54598754,153.0956481
134,D0018,BANNISTER PARK,GERLER RD,HENDRA,"506,931.18","6,967,340.59",-27.41730926,153.0701207
135,D0444,BANYO MEMORIAL PARK,ST VINCENTS RD,BANYO,"507,749.33","6,972,148.10",-27.37390231,153.0783671
136,D0963,BAPAUME ROAD PARK (ROAD RESERVE),BAPUME RD,HOLLAND PK WEST,"506,236.66","6,954,242.32",-27.53556353,153.0631619
137,D1293,BARBOUR ROAD PARK,CANTERBURY ST,BRACKEN RIDGE,"501,891.79","6,977,751.41",-27.32333551,153.0191226
138,D1261,BARCOORAH STREET PARK,BARCOORAH ST,WESTLAKE,"490,745.97","6,952,434.38",-27.55186824,152.9062658
139,D1427,BARDON ESPLANADE PARK (ROAD RESERVE),BARDON ESP,BARDON,"497,510.53","6,963,029.82",-27.45698664,152.9745375
140,D0138,BARDON PARK,COOLIBAH ST,BARDON,"497,899.61","6,962,989.21",-27.45660965,152.9787435
141,D0177,BARDON SCENIC RESERVE,SIMPSONS RD,BARDON,"498,330.65","6,962,578.16",-27.46032121,152.9831051
142,D0239,BARLOW PLACE PARK,GERTRUDE ST,BOONDALL,"505,620.59","6,975,664.32",-27.34216783,153.0568235
143,D1517,BARNARD STREET PARK,BRIDGNORTH ST,CARINDALE,"510,976.41","6,957,526.89",-27.50588059,153.1111339
144,D1691,BARNES AVENUE PARK,BARNES AVE,COORPAROO,"505,444.52","6,959,025.59",-27.49238388,153.055118
145,D0955,BARNETT ROAD PARK,BARNETT RD,BARDON,"497,253.78","6,963,209.25",-27.45462198,152.9722079
146,D1468,BARODA STREET PARK,ORANGE GROVE RD,COOPERS PLAINS,"503,988.06","6,951,078.66",-27.56413312,153.0403996
147,D1393,BAROONA ROAD PARK (ROAD RESERVE),BAROONA RD,PADDINGTON,"499,264.18","6,962,033.15",-27.46524241,152.9925527
148,D0396,BARR STREET PARK,SEXTON ST,TARRAGINDI,"504,171.43","6,956,345.36",-27.51658531,153.042239
149,D0032,BARRACK ROAD PARK,CEDAR ST,CANNON HILL,"508,787.77","6,962,547.64",-27.46056945,153.088938
150,D2812,BARRALLIER PLACE PARK,BARRALLIER PL,DREWVALE,"505,167.68","6,940,979.67",-27.65530084,153.0523927
151,D0939,BARRAMUNDI STREET PARK,BARRAMUNDI ST,MANLY WEST,"516,526.40","6,961,291.75",-27.47183547,153.167275
152,D1394,BARRETT STREET PARK (WATER RESERVE),SNOOKER ST,BRACKEN RIDGE,"503,146.71","6,977,989.25",-27.32118587,153.0318068
153,D1228,BARRIER PLACE PARK (NO.21),BARRIER PL,FOREST LAKE,"495,916.47","6,945,134.14",-27.617799,152.9586131
154,D2184,BARRINGTON CRESCENT PARK,BARRINGTON CRES,WAKERLEY,"515,432.09","6,959,661.75",-27.48656388,153.1562195
155,D0124,BARSTON PLACE PARK,NORFOLK ST,COORPAROO,"506,283.41","6,957,979.05",-27.50182833,153.063616
156,D0220,BARUNGWARRA BUSHLAND RESERVE,BALD HILLS-BURPENGARY RD,BALD HILLS,"501,428.16","6,979,916.99",-27.30378476,153.0144335
157,D2148,BARWIN STREET PARK,BARWIN ST,WAKERLEY,"515,424.83","6,960,110.83",-27.48250969,153.1561403
158,D1806,BARWON STREET PARK,BEVERLEY ST,MORNINGSIDE,"507,984.50","6,962,862.51",-27.45773174,153.0808064
159,D0783,BASSETT STREET PARK,STONYFELL CT,HOLLAND PARK,"508,269.52","6,955,964.48",-27.52000509,153.0837379
160,D1832,BATH STREET PARK,BATH ST,COORPAROO,"505,682.14","6,958,926.89",-27.49327401,153.0575239
161,D1352,BAXTER CRESCENT PARK,BAXTER CRES,FOREST LAKE,"496,849.47","6,945,586.11",-27.61372114,152.9680703
162,D0517,BAYSIDE PARK,ESPLANADE,MANLY,"518,470.74","6,963,431.34",-27.45249436,153.1869223
163,D1985,BEACONSFIELD TERRACE PARK (NOS.346&344),BEACONSFIELD TCE,BRIGHTON,"506,090.80","6,980,579.72",-27.29778873,153.0615527
164,D1674,BEAK STREET PARK,HALL AVE,NORMAN PARK,"506,466.94","6,960,387.49",-27.48008422,153.0654612
165,D1324,BEAMS ROAD PARK (NO.440),BEAMS RD,FITZGIBBON,"503,377.64","6,974,654.79",-27.35128937,153.0341503
166,D1521,BEANLAND STREET PARK,LOFFS RD,JAMBOREE HTS,"493,125.78","6,952,349.92",-27.55264482,152.9303704
167,D1353,BEAUDESERT ROAD PARK,BEAUDESERT RD,CALAMVALE,"504,507.23","6,944,107.53",-27.62706564,153.0456849
168,D1944,BEAUDESERT ROAD PARK (NO.2911),BEAUDESERT RD,PARKINSON,"503,597.98","6,942,260.98",-27.64373851,153.0364744
169,D2043,BECCARIA PLACE PARK,BECCARIA PL,DOOLANDELLA,"498,543.65","6,946,278.58",-27.60747252,152.9852412
170,D1132,BECKETT ROAD PARK,PARAMOUNT CRCT,MCDOWALL,"499,182.43","6,972,194.60",-27.37350426,152.9917322
171,D0074,BEDFORD PLAYGROUND PARK,QUARRY ST,SPRING HILL,"502,799.65","6,962,911.10",-27.45731363,153.0283335
172,D1917,BEENLEIGH ROAD PARK (NO.1251),BEENLEIGH RD,RUNCORN,"508,422.21","6,946,802.31",-27.60271894,153.0853481
173,D0294,BEERWAH STREET PARK,BURRALONG ST,DEAGON,"505,731.12","6,976,546.28",-27.33420487,153.0579368
174,D2052,BEHAN CRESCENT PARK,BEHAN CRES,WAKERLEY,"515,297.96","6,960,250.01",-27.48125466,153.1548542
175,D1977,BEKKER PLACE PARK,SHUTTLEWORTH ST,KURABY,"509,840.95","6,946,164.31",-27.60846913,153.0997303
176,D0801,BELDALE PARK,DAPPER ST,SUNNYBANK HILLS,"506,106.11","6,947,270.40",-27.59850561,153.0618751
177,D1945,BELGENNY WAY PARK,LOCKROSE ST,MITCHELTON,"496,780.52","6,967,743.54",-27.41368526,152.9674305
178,D0612,BELLEVUE AVENUE PARK,BELLEVUE AVE,GAYTHORNE,"498,452.81","6,968,116.02",-27.41032543,152.9843485
179,D0414,BELLEVUE TERRACE PARK,SIR FRED SCHONELL DR,ST LUCIA,"499,577.67","6,958,912.61",-27.4934147,152.9957245
180,D0234,BELLOY STREET PARK,BELLOY ST,WAVELL HEIGHTS,"504,244.73","6,969,556.32",-27.3973165,153.042935
181,D1025,BELLWOOD STREET PARK,BELLWOOD ST,SINNAMON PARK,"494,514.29","6,951,894.60",-27.55676173,152.9444327
182,D1162,BELMONT HILLS BUSHLAND,WEEKES RD,CARINDALE,"511,918.22","6,957,208.93",-27.5087432,153.1206727
183,D0067,BELMONT RECREATION RESERVE,OLD CLEVELAND RD,CARINA,"509,493.87","6,958,688.39",-27.49540584,153.0961144
184,D0067,BELMONT RECREATION RESERVE,OLD CLEVELAND RD,CARINA,"509,698.27","6,958,669.46",-27.49557525,153.0981839
185,D0067,BELMONT RECREATION RESERVE,OLD CLEVELAND RD,CARINA,"509,809.88","6,958,529.81",-27.49683523,153.099315
186,D0067,BELMONT RECREATION RESERVE,OLD CLEVELAND RD,CARINA,"509,897.32","6,958,623.27",-27.49599087,153.1001994
187,D0823,BEN LOMOND STREET PARK,BEN LOMOND ST,ASPLEY,"500,908.71","6,972,980.49",-27.3664091,153.009189
188,D0312,BENARRAWA RESERVE,GRAY AVE,CORINDA,"498,680.65","6,953,457.27",-27.54266459,152.9866374
189,D1299,BENBEK CIRCUIT PARK,BENBEK CRCT,SUNNYBANK HILLS,"504,212.81","6,946,945.07",-27.60144979,153.0426908
190,D0767,BENDELL PARK,BORELLA RD,SUNNYBANK HILLS,"505,411.14","6,947,967.71",-27.59221339,153.0548295
191,D0682,BENEKE STREET PARK,HAMILTON RD,CHERMSIDE,"502,426.29","6,971,260.05",-27.38193953,153.0245382
192,D0577,BENELONG PARK,ELEVENTH AVE,KEDRON,"503,990.27","6,968,684.10",-27.4051918,153.040364
193,D1560,BENETEAU PLACE PARK,WHITES RD,LOTA,"517,963.38","6,961,809.56",-27.46714252,153.1818119
194,D1201,BENJAMINA PLACE PARK,BENJAMINA PL,THE GAP,"494,180.34","6,963,376.90",-27.45309878,152.9411052
195,D0817,BENSARA PLACE PARK,SALITO ST,CARSELDINE,"500,922.39","6,974,004.19",-27.35716694,153.0093265
196,D0479,BENSON STREET PARK,BENSON ST,TOOWONG,"499,269.83","6,959,603.65",-27.48717592,152.9926084
197,D1492,BERGIN ROAD PARK,BERGIN RD,FERNY GROVE,"492,396.46","6,969,285.14",-27.39975014,152.9230893
198,D1777,BERKSHIRE CRESCENT PARK,BERKSHIRE CRES,WISHART,"509,813.56","6,952,750.14",-27.54901357,153.0993991
199,D0136,BERMINGHAM STREET PARK,BERMINGHAM ST,ALDERLEY,"499,855.70","6,966,808.91",-27.42212693,152.9985401
200,D0614,BERNARRA STREET PARK,PATEN RD,THE GAP,"496,115.58","6,963,405.98",-27.45284318,152.9606898
201,D0781,BERT WOLFE PARK,ULVA ST,BALD HILLS,"500,885.16","6,978,809.46",-27.31378421,153.0089466
202,D1315,BERYL CRESCENT PARK,BERYL CRES,HOLLAND PARK,"505,564.03","6,956,558.48",-27.51465637,153.0563391
203,D0888,BERYL MCKENZIE PARK,NURSERY RD,HOLLAND PK WEST,"506,332.18","6,954,444.28",-27.53373973,153.0641283
204,D0730,BERYL ROBERTS PARK,BARODA ST,COOPERS PLAINS,"504,032.70","6,950,961.95",-27.5651866,153.0408523
205,D0730,BERYL ROBERTS PARK,BARODA ST,COOPERS PLAINS,"504,332.46","6,950,817.13",-27.5664931,153.0438894
206,D0259,BIAMBI YUMBA PARK,KENNY ST,FIG TREE POCKET,"496,881.02","6,953,804.88",-27.53952339,152.9684114
207,D1377,BIELBY ROAD PARK,BIELBY RD,KENMORE HILLS,"493,592.57","6,959,328.87",-27.4896417,152.9351356
208,D0804,BILL BROWN SPORTS RESERVE,ROGHAN RD,FITZGIBBON,"503,506.84","6,976,442.25",-27.33515159,153.0354515
209,D0034,BILL CASH MEMORIAL PARK,WYNNUM RD,CANNON HILL,"508,538.08","6,961,837.91",-27.46697841,153.086416
210,D1117,BILL FURSMAN PLACE PARK,WATERWORKS RD,THE GAP,"493,157.97","6,964,159.89",-27.4460252,152.9307632
211,D0581,BILL KEY LOCK PLACE PARK,BLUEJAY ST,INALA,"498,228.24","6,946,794.09",-27.60281824,152.9820455
212,D0861,BILL LAMOND PARK,ANDREW ST,LOTA,"518,433.36","6,961,232.07",-27.47234974,153.1865774
213,D0551,BILL MOORE PARK,MYRA RD,SALISBURY,"502,783.54","6,952,809.11",-27.54851382,153.0281936
214,D0551,BILL MOORE PARK,MYRA RD,SALISBURY,"502,900.43","6,952,831.69",-27.54830978,153.0293775
215,D1195,BILLABONG PLACE PARK,GRAGIN PL,PARKINSON,"503,472.99","6,943,670.61",-27.63101312,153.0352033
216,D3012,BILLARA PLACE PARK,BILLARA PL,BANYO,"508,413.40","6,971,556.19",-27.37924217,153.0850868
217,D0237,BILSTON STREET PARK,WEBSTER RD,STAFFORD,"501,049.29","6,967,703.04",-27.4140543,153.010615
218,D0237,BILSTON STREET PARK,WEBSTER RD,STAFFORD,"501,356.03","6,967,131.82",-27.41817827,153.0132991
219,D0237,BILSTON STREET PARK,WEBSTER RD,STAFFORD,"501,696.80","6,967,285.28",-27.41782516,153.0171661
220,D1266,BIRAN STREET PARK,OLD CLEVELAND RD,COORPAROO,"506,349.98","6,958,965.06",-27.49292643,153.0642848
221,D1526,BIRDWOOD ROAD PARK,BIRDWOOD RD,HOLLAND PK WEST,"505,373.30","6,955,950.04",-27.52015002,153.0544106
222,D1804,BIRDWOOD TERRACE PARK,BIRDWOOD TCE,TOOWONG,"497,535.05","6,961,287.67",-27.47197058,152.9750506
223,D1070,BIRKRIDGE PLACE PARK,BIRKRIDGE PL,THE GAP,"493,420.79","6,965,457.96",-27.43430747,152.9334298
224,D2046,BISHOP STREET (NO 62A),BISHOP ST,KELVIN GROVE,"500,881.65","6,964,598.36",-27.44208355,153.0089214
225,D2045,BISHOP STREET (NO 90),BISHOP ST,KELVIN GROVE,"500,984.61","6,964,709.17",-27.44108308,153.0099631
226,D0982,BISSET PLACE PARK,BISSET PL,MCDOWALL,"499,149.92","6,970,932.54",-27.38489826,152.9914025
227,D1424,BLACKBUTT PLACE PARK,BLACKBUTT PL,BROOKFIELD,"492,796.60","6,957,681.50",-27.50451007,152.9270679
228,D0314,BLACKHEATH ROAD PARK,BLACKHEATH RD,CORINDA,"497,035.08","6,953,148.12",-27.54545291,152.96997
229,D1357,BLACKSELL PARK,PAULINE AVE,CAROLE PARK,"493,739.39","6,946,025.33",-27.60974512,152.9365529
230,D1661,BLACKWOOD STREET PARK,BLACKWOOD ST,MITCHELTON,"497,463.37","6,968,140.32",-27.41010456,152.9743393
231,D1657,BLAIRMOUNT STREET PARK,KILLARNEY PL,PARKINSON,"502,469.01","6,944,020.00",-27.62786111,153.0250259
232,D1533,BLISS STREET PARK (LOT 29),BLISS ST,GAYTHORNE,"497,648.35","6,966,802.21",-27.42218542,152.976208
233,D1534,BLISS STREET PARK (NO.39),BLISS ST,GAYTHORNE,"497,863.03","6,966,766.01",-27.42251261,152.9783799
234,D1337,BLUE GUM PARK,KAKADU CRCT,ZILLMERE,"503,394.99","6,974,541.22",-27.3517484,153.0345315
235,D2022,BLUE RANGE DRIVE PARK,BLUE RANGE DR,ALGESTER,"503,504.74","6,946,802.79",-27.60273637,153.0355159
236,D2615,BLUEGUM RISE PARK,BLUEGUM RISE,ANSTEAD,"486,104.48","6,951,323.47",-27.56185758,152.8592393
237,D2452,BLUNDER CREEK RESERVE,BLUNDER RD,DOOLANDELLA,"498,807.51","6,945,087.34",-27.61822708,152.987914
238,D2021,BLUNDER ROAD PARK (NO 750),BLUNDER RD,DURACK,"499,450.91","6,947,127.88",-27.59980591,152.9944359
239,D2872,BOBLYNN STREET PARK (NO 64),BOBLYNNE ST,CHAPEL HILL,"494,965.57","6,957,733.41",-27.50405123,152.9490282
240,D1367,BOBLYNNE STREET PARK (NO.32),BOBLYNNE ST,CHAPEL HILL,"494,933.40","6,957,561.19",-27.5056059,152.9487018
241,D0895,BOGNOR STREET PARK,BOGNOR ST,TINGALPA,"514,459.61","6,961,870.09",-27.46663781,153.1463487
242,D1756,BOGNOR STREET PARK (NO.75),BOGNOR ST,TINGALPA,"514,406.44","6,961,666.67",-27.46847482,153.145813
243,D1983,BOGONG STREET PARK,TAWONGA ST,HEMMANT,"512,839.71","6,962,845.92",-27.45784433,153.129943
244,D0206,BOLES STREET PARK,OGDEN ST,STAFFORD,"500,246.95","6,968,574.04",-27.40619124,153.0024981
245,D0578,BOLTON STREET PARK,BOLINDA ST,EIGHT MILE PLNS,"509,101.13","6,949,489.20",-27.57845783,153.0922077
246,D0608,BONEMILL ROAD PARK,DAW RD,RUNCORN,"507,407.66","6,948,359.73",-27.5886648,153.0750573
247,D1859,BONROS PLACE PARK,DOYLE PL,THE GAP,"493,303.36","6,963,171.95",-27.45494507,152.9322291
248,D1530,BONYI STREET PARK,MAROONA ST,SUNNYBANK HILLS,"506,147.21","6,947,575.32",-27.59551855,153.0622821
249,D0663,BOOKER PLACE PARK,BIRKIN RD,BELLBOWRIE,"489,395.47","6,951,118.49",-27.56373786,152.892575
250,D1998,BOOLARRA STREET PARK (NO.36),BOOLARRA ST,HEMMANT,"512,070.91","6,964,057.65",-27.44691189,153.1221505
251,D2032,BOOLOUMBA CRESCENT PARK,BOOLOUMBA CRES,FOREST LAKE,"496,648.41","6,943,617.98",-27.63148855,152.9660272
252,D0238,BOONDALL PARK,SANDGATE RD,BOONDALL,"505,639.90","6,976,031.26",-27.33885492,153.0570171
253,D0238,BOONDALL PARK,SANDGATE RD,BOONDALL,"505,742.92","6,976,304.07",-27.33639158,153.0580572
254,D1108,BOONDALL WETLANDS,NUDGEE RD,NUDGEE BEACH,"506,360.95","6,976,291.37",-27.33650351,153.0643052
255,D1108,BOONDALL WETLANDS,NUDGEE RD,NUDGEE BEACH,"507,233.97","6,975,898.29",-27.34004789,153.0731332
256,D1108,BOONDALL WETLANDS,NUDGEE RD,NUDGEE BEACH,"507,932.11","6,975,568.19",-27.34302443,153.0801937
257,D1108,BOONDALL WETLANDS,NUDGEE RD,NUDGEE BEACH,"509,335.22","6,974,647.14",-27.35133113,153.0943862
258,D2174,BOONDALL WETLANDS WESTERN EXTENSION,STANWORTH RD,BOONDALL,"507,529.98","6,974,645.83",-27.35135385,153.0761336
259,D0435,BOORABBIN PICNIC GROUND,MT GRAVATT-CAPALABA RD,WISHART,"511,011.26","6,952,391.99",-27.55042782,153.1118277
260,D0435,BOORABBIN PICNIC GROUND,MT GRAVATT-CAPALABA RD,WISHART,"511,151.98","6,953,108.60",-27.54576702,153.1129523
261,D0876,BOORAL STREET PARK,BONYI ST,SUNNYBANK HILLS,"506,154.22","6,947,512.40",-27.5963206,153.0623613
262,D1036,BOORALA CRESCENT PARK,NARMAR CT,EIGHT MILE PLNS,"509,529.10","6,950,609.00",-27.56834546,153.0965348
263,D0086,BOOROODABIN RECREATION RESERVE,BREAKFAST CREEK RD,NEWSTEAD,"504,217.04","6,964,313.99",-27.44464466,153.0426731
264,D1750,BORAGE PLACE PARK,SHELDUCK PL,CALAMVALE,"504,960.93","6,943,925.12",-27.62871083,153.0502844
265,D1967,BORDEAUX STREET PARK,BORDEAUX ST,EIGHT MILE PLNS,"508,876.75","6,948,732.46",-27.58529099,153.0899399
266,D0830,BORELLA ROAD PARK,BORELLA RD,SUNNYBANK HILLS,"505,336.08","6,947,415.24",-27.59720122,153.0540715
267,D1301,BORONIA PARK,EVERGREEN PL,FOREST LAKE,"495,941.72","6,945,047.55",-27.61858079,152.9588687
268,D1855,BORTHWICK AVENUE PARK,BORTHWICK AVE,MURARRIE,"509,950.19","6,963,079.40",-27.45483768,153.1005948
269,D1926,BORTHWICK AVENUE PARK,BORTHWICK AVE,MURARRIE,"509,933.57","6,963,717.06",-27.45119004,153.10105
270,D0619,BOTTICELLI STREET PARK,FIG TREE POCKET RD,FIG TREE POCKET,"496,828.83","6,953,365.49",-27.54276839,152.9677796
271,D1587,BOTTLEBRUSH PLACE PARK,BOTTLEBRUSH PL,MT GRAVATT EAST,"508,681.33","6,955,707.20",-27.52165447,153.0880726
272,D1856,BOUNDARY ROAD PARK (NO.1111),BOUNDARY RD,WACOL,"493,671.93","6,948,433.70",-27.58800254,152.9358819
273,D2041,BOUNDARY STREET,BOUNDARY ST,BRISBANE,"503,407.66","6,962,334.77",-27.46251528,153.0344884
274,D1477,BOUNDARY STREET PARK (NO.349),GLENFIELD ST,WEST END,"500,995.59","6,959,297.50",-27.4899396,153.0100787
275,D1443,BOUNDARY STREET PARK (NOS148-188),BOUNDARY ST,TINGALPA,"511,993.03","6,961,847.50",-27.46686577,153.1213843
276,D2172,BOURNDA CLOSE PARK,BOURNDA CL,PARKINSON,"502,520.50","6,942,821.06",-27.63868472,153.0255503
277,D0244,BOWDEN PARK,AKAROA AVE,GEEBUNG,"504,969.85","6,972,183.18",-27.37359856,153.0502588
278,D1142,BOWDEN STREET PARK,BOWDEN ST,CARSELDINE,"501,872.82","6,974,489.99",-27.35300624,153.0188254
279,D2167,BOWEN BRIDGE RD PARK EAST,BOWEN BRIDGE RD,BOWEN HILLS,"502,981.41","6,964,323.03",-27.44456628,153.0301695
280,D2025,BOWEN BRIDGE RD PARK WEST,BOWEN BRIDGE RD,HERSTON,"502,891.00","6,964,343.66",-27.4443802,153.0292546
281,D0087,BOWEN PARK,BOWEN BRIDGE RD,BOWEN HILLS,"502,944.98","6,963,857.16",-27.44877229,153.029802
282,D1494,BOWERING STREET PARK (ROAD RESERVE),BOWERING ST,LOTA,"518,702.91","6,961,217.09",-27.47311966,153.1891542
283,D0704,BOWHILL ROAD PARK,BOWHILL RD,WILLAWONG,"499,567.82","6,948,583.00",-27.58666938,152.995621
284,D0105,BOWIE'S FLAT PARK,BOONGALL RD,CAMP HILL,"506,435.91","6,958,813.04",-27.49429842,153.0651555
285,D0178,BOWMAN PARK,SIMPSONS RD,BARDON,"497,740.88","6,962,826.53",-27.45807814,152.9771367
286,D2096,BOXWOOD PLACE PARK,BOXWOOD PL,BALD HILLS,"501,902.33","6,976,291.05",-27.33651984,153.0192314
287,D0449,BOYD PARK,BOYD RD,NUNDAH,"505,645.68","6,969,147.83",-27.40099934,153.0571074
288,D1230,BOYD TERRACE PARK,REES WAY,BROOKFIELD,"491,926.63","6,957,588.08",-27.5053485,152.9182591
289,D2413,BOZZATO PLACE PARK,BOZZATO PL,KENMORE,"493,778.99","6,957,808.18",-27.50337124,152.9370149
290,D0230,BRADBURY PARK,KITCHENER RD,KEDRON,"502,761.43","6,969,685.12",-27.39615751,153.0279313
291,D1274,BRADFORD STREET PARK (NO.21),BRADFORD ST,DARRA,"495,554.83","6,951,644.80",-27.55902063,152.9549719
292,D1275,BRADFORD STREET PARK (NO.5),BRADFORD ST,DARRA,"495,618.43","6,951,635.48",-27.55910503,152.9556161
293,D1604,BRADMAN STREET PARK,MORDEN RD,SUNNYBANK HILLS,"503,853.17","6,948,944.57",-27.58339975,153.03904
294,D0509,BRADSHAW PARK,LAMINGTON AVE,LUTWYCHE,"503,195.48","6,967,100.13",-27.41949409,153.0323284
295,D0509,BRADSHAW PARK,LAMINGTON AVE,LUTWYCHE,"503,242.12","6,967,000.26",-27.42039558,153.0328005
296,D0772,BRADY BUSHLAND PARK,NEMIES RD,RUNCORN,"506,330.68","6,946,223.00",-27.60796035,153.0641562
297,D1251,BRAMPTON STREET PARK,TIMARU CRES,EIGHT MILE PLNS,"509,711.59","6,950,185.41",-27.57216832,153.0983869
298,D0863,BREENE COURT PARK,BREENE CT,CARINDALE,"511,032.30","6,956,980.76",-27.51081057,153.1117048
299,D1546,BREMEN STREET PARK,GLENWOOD PL,HEMMANT,"513,797.86","6,962,736.43",-27.45882338,153.1396411
300,D0962,BRETON STREET PARK,BRETON ST,SUNNYBANK,"504,781.27","6,949,589.13",-27.57757783,153.0484409
301,D1539,BRETT PLACE PARK,AMANDA ST,WYNNUM WEST,"514,301.44","6,963,771.01",-27.44947805,153.1447254
302,D0701,BRIDGE STREET PARK,BRIDGE ST,RED HILL,"500,061.79","6,963,901.11",-27.44782991,153.0007077
303,D1623,BRIDGEMAN PLACE PARK,BRIDGEMAN PL,FOREST LAKE,"497,709.38","6,945,776.53",-27.61200382,152.9767856
304,D2109,BRIDGEWATER PLACE PARK,BROOKSIDE PL,LOTA,"518,092.43","6,961,900.45",-27.46632027,153.1831166
305,D0862,BRIDGNORTH STREET PARK (NO.71),BRIDGNORTH ST,CARINDALE,"510,979.02","6,957,436.59",-27.50669584,153.1111612
306,D1481,BRIER STREET PARK,ROSECLIFFE ST,DUTTON PARK,"502,017.36","6,958,922.10",-27.49332763,153.0204231
307,D0274,BRIGHTON PARK,HORNIBROOK HWY,BRIGHTON,"505,997.67","6,982,267.34",-27.28255296,153.0606033
308,D0373,BRISBANE CORSO PARK,BRISBANE CSO,YERONGA,"501,007.10","6,957,533.29",-27.50586685,153.0101967
309,D0373,BRISBANE CORSO PARK,BRISBANE CSO,YERONGA,"501,628.67","6,957,580.37",-27.50544121,153.0164899
310,D1605,BRISBANE CORSO PARK (NOS.55&59),BRISBANE CSO,FAIRFIELD,"502,215.07","6,957,836.29",-27.50312993,153.0224266
311,D0232,BRISTOL PARK,RODE RD,WAVELL HEIGHTS,"503,585.76","6,969,829.07",-27.39485599,153.0362688
312,D0562,BRITTAIN PARK,TROUGHTON RD,COOPERS PLAINS,"504,646.46","6,950,552.58",-27.56888044,153.0470713
313,D0434,BROADWATER PICNIC GROUND PARK,MANSFIELD PL,MANSFIELD,"511,073.21","6,953,318.78",-27.54387022,153.1121526
314,D0514,BROOK ROAD PARK,TERRACE ST,WOOLOOWIN,"504,010.71","6,968,026.15",-27.4111317,153.040573
315,D0633,BROOK STREET PARK,BROOK ST,EVERTON PARK,"498,769.97","6,968,127.01",-27.41022653,152.9875569
316,D1676,BROOKBENT ROAD PARK,GOODERHAM RD,PALLARA,"501,170.04","6,945,845.50",-27.61138257,153.0118578
317,D0273,BROOKFIELD RECREATION RESERVE,BOSCOMBE RD,BROOKFIELD,"491,390.86","6,959,005.26",-27.49255104,152.9128447
318,D0266,BROOKFIELD ROAD PARK,BROOKFIELD RD,KENMORE,"493,374.57","6,957,538.36",-27.50580528,152.9329189
319,D1973,BROOKLANDS CIRCUIT PARK,BROOKLANDS CRCT,FOREST LAKE,"497,503.96","6,945,894.37",-27.61093965,152.974704
320,D2110,BROOKSIDE PLACE (NO 34) PARK,BROOKSIDE PL,LOTA,"518,247.02","6,962,012.26",-27.46530872,153.1846796
321,D0210,BROULA PARK,DORRIGO ST,STAFFORD HTS,"502,058.20","6,968,819.24",-27.40397601,153.0208197
322,D2572,BROWNE STREET PARK,BROWNE ST,CORINDA,"498,112.40","6,953,864.48",-27.53898765,152.9808827
323,D1962,BROWNLEE STREET PARK,BANCROFT RD,PINKENBA,"513,442.80","6,969,659.99",-27.39694849,153.135629
324,D0831,BRUNA STREET PARK,ELLEN ST,RUNCORN,"506,550.28","6,947,266.87",-27.59853537,153.0663759
325,D1164,BRUNSWICK STREET PARK,BRUNSWICK ST,VALLEY,"503,095.50","6,963,073.08",-27.45585058,153.0313271
326,D2190,BRUSH BOX PLACE PARK,BRUSH BOX PL,HEATHWOOD,"499,358.81","6,943,537.82",-27.63221617,152.9935006
327,D0686,BRUSHBOX PARK,LUMLEY ST,UPR MT GRAVATT,"508,712.40","6,952,302.49",-27.55306242,153.088249
328,D2533,BRUSHWOOD CIRCUIT PARK,BRUSHWOOD CRCT,FOREST LAKE,"495,600.91","6,946,342.09",-27.60689281,152.9554193
329,D2103,BRYDON STREET PARK,BRYDON ST,HIGHGATE HILL,"501,576.73","6,959,425.85",-27.48878035,153.0159616
330,D1961,BUCKINGHAM PLACE PARK,MANCHESTER ST,EIGHT MILE PLNS,"509,526.64","6,949,855.19",-27.57515076,153.0965158
331,D0069,BUCKLEY STREET PARK,CREEK RD,CARINA HEIGHTS,"509,283.09","6,957,179.03",-27.50903372,153.0939921
332,D0069,BUCKLEY STREET PARK,CREEK RD,CARINA HEIGHTS,"509,634.02","6,957,129.37",-27.50947961,153.0975457
333,D2037,BUKULLA STREET PARK,BUKULLA ST,WACOL,"493,848.98","6,948,180.25",-27.59029143,152.9376745
334,D0030,BULIMBA MEMORIAL PARK,OXFORD ST,BULIMBA,"505,652.93","6,963,467.18",-27.45228443,153.0572071
335,D2672,BULIMBA RIVERSIDE PARK,ADDISON AVE,BULIMBA,"505,334.61","6,963,280.52",-27.45397086,153.0539866
336,D1890,BULLOCK DRAY ROAD PARK,BULLOCK DRAY DR,MT CROSBY,"482,398.98","6,955,803.13",-27.52137279,152.8217683
337,D1890,BULLOCK DRAY ROAD PARK,BULLOCK DRAY DR,MT CROSBY,"482,947.40","6,956,017.34",-27.51944593,152.8273248
338,D2972,BULWER PARK,MORETON ST,BULWER,"536,495.95","7,005,522.80",-27.07212554,153.3680801
339,D0956,BUNDABAH DRIVE PARK,BUNDABAH DR,CALAMVALE,"503,805.37","6,945,249.70",-27.61675651,153.0385673
340,D1843,BUNDABAH DRIVE PARK (NO.55),BUNDABAH DR,CALAMVALE,"503,975.42","6,945,489.20",-27.61459391,153.04029
341,D1042,BUNDARA PARK,BALVENIE ST,KEPERRA,"493,985.67","6,967,231.44",-27.41829906,152.9391542
342,D0359,BURANDA PLAYGROUND PARK,SWORD ST,WOOLLOONGABBA,"504,226.91","6,958,858.66",-27.49389527,153.042792
343,D0053,BURN STREET PARK,LONG ST,CAMP HILL,"508,245.68","6,958,674.63",-27.49553826,153.0834781
344,D1620,BURNBY ROAD PARK (NO.99),BURNBY RD,HEMMANT,"513,387.97","6,963,915.65",-27.44818149,153.1354799
345,D0231,BURNIE BRAE PARK,KURAN ST,CHERMSIDE,"503,499.07","6,970,402.04",-27.38968345,153.0353903
346,D1900,BURRUN PARK,COLLEGE RD,KARANA DOWNS,"482,316.71","6,952,728.54",-27.54912862,152.8208903
347,D1457,BURWOOD ROAD PARK,BROOK ST,EVERTON PARK,"498,667.69","6,968,134.06",-27.41016275,152.9865223
348,D0957,BUSHY PARK,MANZILL ST,SUNNYBANK HILLS,"504,570.49","6,948,069.69",-27.59129579,153.0463111
349,D0932,BYRON STREET PARK,BYRON ST,RUNCORN,"506,593.62","6,947,028.47",-27.6006874,153.0668164
350,D0779,C. SLAUGHTER PARK,RANES CT,BRACKEN RIDGE,"503,529.62","6,977,342.17",-27.32702689,153.0356792
351,D0570,C.A.O SULLIVAN PARK,BEAUDESERT RD,ACACIA RIDGE,"502,503.69","6,948,602.26",-27.58649329,153.0253678
352,D0119,C.B.MOTT PARK,ABBOTSLEIGH ST,HOLLAND PARK,"505,863.34","6,956,452.52",-27.51561168,153.0593704
353,D0564,C.J.GREENFIELD COMPLEX PARK,KIMBERLEY ST,RICHLANDS,"496,365.47","6,949,502.29",-27.57836534,152.9631769
354,D0125,C.P.BOTTOMLEY PARK,HALIFAX ST,NORMAN PARK,"506,021.65","6,959,967.27",-27.48388001,153.0609559
355,D0125,C.P.BOTTOMLEY PARK,HALIFAX ST,NORMAN PARK,"506,066.66","6,960,118.80",-27.48251183,153.0614108
356,D0125,C.P.BOTTOMLEY PARK,HALIFAX ST,NORMAN PARK,"506,199.33","6,960,036.73",-27.4832521,153.0627541
357,D0125,C.P.BOTTOMLEY PARK,HALIFAX ST,NORMAN PARK,"506,259.25","6,960,111.82",-27.48257392,153.0633604
358,D0090,C.T.WHITE PARK,BRIGHT ST,KANGAROO POINT,"503,385.08","6,961,532.78",-27.46975575,153.0342621
359,D0961,CADOGAN STREET PARK,MEADOWLANDS RD,CARINDALE,"511,609.19","6,958,430.75",-27.49771538,153.1175321
360,D2072,CALAMVALE DISTRICT PARK,FORMBY ST,CALAMVALE,"503,858.13","6,944,758.52",-27.62119061,153.0391036
361,D0834,CALAMVISTA PARK,PALATINE ST,CALAMVALE,"505,832.50","6,945,216.13",-27.61705232,153.0591124
362,D0320,CALIFORNIA ROAD PARK,OXLEY RD,OXLEY,"497,652.59","6,951,653.38",-27.55894848,152.9762215
363,D1931,CALLIOPE CIRCUIT PARK,CALLIOPE CRCT,MURARRIE,"509,293.78","6,962,204.00",-27.46366846,153.0940618
364,D1761,CAMBRIDGE CRESCENT PARK,ROGHAN RD,FITZGIBBON,"503,962.04","6,975,864.83",-27.33856539,153.0400177
365,D1226,CAMELOT CRESCENT PARK,CAMELOT CRES,MIDDLE PARK,"492,372.10","6,951,700.99",-27.5584992,152.9227322
366,D1532,CAMELOT PLACE PARK,CAMELOT PL,BRIDGEMAN DOWNS,"498,182.23","6,975,542.78",-27.34327549,152.9816224
367,D0171,CAMERON ROCKS RESERVE,KINGSFORD SMITH DR,HAMILTON,"504,781.89","6,964,719.08",-27.44098564,153.0483873
368,D0171,CAMERON ROCKS RESERVE,KINGSFORD SMITH DR,HAMILTON,"505,015.94","6,964,827.74",-27.44000375,153.0507552
369,D0147,CAMOOLA STREET PARK,AVINGTON ST,KEPERRA,"494,483.79","6,968,005.44",-27.41131346,152.9441971
370,D1064,CANNES STREET PARK,CARINGBAH ST,WAKERLEY,"515,955.34","6,960,719.31",-27.47701025,153.1615024
371,D0593,CANNON HILL BUSHLAND RESERVE,CREEK RD,CANNON HILL,"509,983.93","6,961,144.23",-27.4732311,153.1010555
372,D2553,CANOPUS STREET PARK,CANOPUS ST,BRIDGEMAN DOWNS,"499,174.94","6,973,400.58",-27.36261654,152.9916572
373,D0660,CANTERBURY PARK,FEUERRIEGEL RD,BALD HILLS,"500,659.67","6,979,438.56",-27.30810474,153.0066672
374,D0660,CANTERBURY PARK,FEUERRIEGEL RD,BALD HILLS,"500,745.85","6,979,721.96",-27.30554605,153.007538
375,D0602,CAPALABA RECREATION RESERVE,CAMROSE ST,CAPALABA WEST,"518,494.80","6,956,149.57",-27.51823323,153.1872769
376,D0651,CAPITOL DRIVE PARK,NERO CL,JINDALEE,"494,505.73","6,953,693.07",-27.54052531,152.9443542
377,D0075,CAPTAIN BURKE PARK,HOLMAN ST,KANGAROO POINT,"503,453.00","6,962,023.91",-27.46532167,153.0349481
378,D0075,CAPTAIN BURKE PARK,HOLMAN ST,KANGAROO POINT,"503,584.82","6,962,017.40",-27.46538008,153.0362823
379,D1928,CARABBEAN CLOSE PARK,PINEWOOD ST,WYNNUM WEST,"514,542.75","6,963,077.12",-27.4555359,153.1470184
380,D0790,CARAVONICA COURT PARK,CHATEAU ST,CALAMVALE,"505,593.79","6,945,413.17",-27.61527454,153.0566921
381,D2104,CARAWA STREET PARK,CARAWA ST,ST LUCIA,"499,097.82","6,957,829.76",-27.5031904,152.9908658
382,D1652,CARDWELL STREET PARK,LILYDALE PL,FOREST LAKE,"494,717.53","6,945,986.04",-27.60678161,152.9456137
383,D0451,CAREW STREET PARK,CAREW ST,NUNDAH,"505,056.43","6,968,773.74",-27.40437897,153.0511485
384,D0723,CARINDALE REC RESERVE,BEDIVERE ST,CARINDALE,"510,921.02","6,958,407.17",-27.49793395,153.1105651
385,D0806,CARINYA STREET PARK,TATONG ST,INDOOROOPILLY,"496,420.57","6,958,752.86",-27.49485231,152.9637626
386,D2063,CARISBROOK CIRCUIT PARK,CARISBROOK CRCT,FOREST LAKE,"496,379.02","6,944,090.25",-27.62722429,152.9632979
387,D0591,CARMICHAEL PARK,BOUNDARY ST,TINGALPA,"512,365.29","6,961,664.44",-27.46851513,153.1251538
388,D1815,CARNARVON WAY PARK,CARNARVON WAY,MURARRIE,"509,391.49","6,962,392.55",-27.46196551,153.0950492
389,D0406,CARR STREET PARK,KEITH ST,ST LUCIA,"500,864.12","6,958,930.58",-27.49325225,153.0087481
390,D1598,CARWOOLA STREET PARK,CARWOOLA ST,BARDON,"496,973.32","6,962,202.59",-27.4637095,152.9693671
391,D2007,CASCADE DRIVE PARK (NO.20),CASCADE DR,FOREST LAKE,"496,549.95","6,943,953.86",-27.62845607,152.9650301
392,D2008,CASCADE DRIVE PARK (NO.25),CASCADE DR,FOREST LAKE,"496,421.69","6,943,876.18",-27.62915698,152.9637299
393,D1415,CASSANDRA CRESCENT PARK,CASSANDRA CRES,BELMONT,"511,852.97","6,960,412.74",-27.47981996,153.1199807
394,D1658,CASSIA PLACE PARK,BRUSHBOX ST,TAIGUM,"504,726.25","6,976,498.93",-27.33463625,153.0477786
395,D2119,CATALINA CIRCUIT PARK,CATALINA CRCT,FOREST LAKE,"496,545.80","6,944,131.34",-27.6268538,152.9649886
396,D1946,CATALINA PARK,MACQUARIE ST,NEWSTEAD,"504,996.89","6,962,647.72",-27.45968511,153.0505714
397,D1055,CATANIA STREET PARK,CATANIA ST SOUTH,WISHART,"509,884.55","6,953,080.14",-27.54603382,153.1001154
398,D0093,CATHEDRAL SQUARE,ANN ST,BRISBANE,"502,873.65","6,962,229.51",-27.46346688,153.0290839
399,D0683,CAVAY PLAYGROUND PARK,MORDEN RD,SUNNYBANK HILLS,"503,904.89","6,949,158.07",-27.58147217,153.0395633
400,D0012,CAWONGA PARK,LINCOLN ST,OXLEY,"497,614.43","6,952,152.78",-27.5544399,152.975836
401,D0179,CECIL ROAD PARK,CECIL RD,BARDON,"498,302.93","6,962,984.75",-27.45665053,152.9828252
402,D1060,CELICA STREET PARK,CELICA ST,RUNCORN,"507,470.41","6,946,842.52",-27.60236159,153.0757026
403,D0328,CENTENARY HIGHWAY PARK,IPSWICH RD,DARRA,"494,678.14","6,950,119.85",-27.57278456,152.9460846
404,D0254,CENTENARY HIGHWAY PARK (FIG TREE POCKET),FIG TREE POCKET RD,CHAPEL HILL,"495,549.29","6,956,402.92",-27.51606478,152.9549333
405,D0076,CENTENARY PLACE PARK,WICKHAM ST,VALLEY,"503,157.04","6,962,509.93",-27.46093462,153.0319514
406,D1794,CENTENNIAL WAY PARK,CENTENNIAL WAY,FOREST LAKE,"495,710.91","6,943,662.92",-27.63135863,152.9563487
407,D1803,CENTENNIAL WAY PARK (NO.125),CENTENNIAL WAY,FOREST LAKE,"496,218.94","6,943,912.12",-27.62883199,152.9616748
408,D1862,CENTRAL STREET PARK,CENTRAL ST,FOREST LAKE,"496,145.62","6,943,600.77",-27.63164261,152.9609306
409,D1966,CHADWELL STREET PARK,CHADWELL ST,RANSOME,"518,207.63","6,958,057.99",-27.50100813,153.1843403
410,D0747,CHAPROWE ROAD PARK,CHAPROWE RD,THE GAP,"494,566.54","6,964,976.49",-27.43865928,152.9450207
411,D0716,CHARLES FRASER PARK,MANCHESTER ST,EIGHT MILE PLNS,"509,137.73","6,949,890.61",-27.57483365,153.0925754
412,D2056,CHARLOTTE STREET PARK,CHARLOTTE ST,CARINA,"510,627.60","6,959,417.20",-27.48881778,153.1075857
413,D0741,CHATEAU STREET PARK,CHATEAU ST,CARSELDINE,"500,822.78","6,975,185.31",-27.34650375,153.0083185
414,D2067,CHAUVEL PLACE,GONA PDE,KELVIN GROVE,"501,387.36","6,962,999.19",-27.45652047,153.0140405
415,D0301,CHELMER CHILDRENS PLAYGROUND PARK,PARK DR,GRACEVILLE,"498,038.75","6,956,262.64",-27.51733714,152.9801406
416,D0299,CHELMER RECREATION RESERVE,OXLEY RD,CHELMER,"497,510.84","6,956,761.28",-27.51283458,152.9747962
417,D1374,CHELSEA ROAD PARK (NO.258),CHELSEA RD,RANSOME,"517,240.76","6,959,399.04",-27.48891386,153.1745324
418,D1375,CHELSEA ROAD PARK (NO.303),CHELSEA RD,RANSOME,"518,075.51","6,959,138.82",-27.49125223,153.1829866
419,D1872,CHELSEA ROAD PARK (NO.498),CHELSEA RD,RANSOME,"517,970.46","6,960,704.10",-27.47712244,153.1819
420,D1376,CHELSEA ROAD PARK (NOS.399-551),CHELSEA RD,RANSOME,"518,271.76","6,960,088.45",-27.48267651,153.184959
421,D0885,CHELSEA STREET PARK,NEMIES RD,RUNCORN,"506,577.61","6,946,817.71",-27.60259021,153.0666553
422,D1109,CHERMSIDE HILLS RESERVE,WALKER ST,MCDOWALL,"499,787.10","6,971,941.07",-27.37579343,152.9978469
423,D2036,CHESSOM STREET,CHESSOM ST,MITCHELTON,"497,067.17","6,969,313.11",-27.39951574,152.9703342
424,D0059,CHESTER PARK RESERVE,BOAMBILLEE ST,MT GRAVATT EAST,"508,273.80","6,954,960.11",-27.52907244,153.0837881
425,D1690,CHESTERFIELD CRESCENT PARK,CHESTERFIELD CRES,KURABY,"508,788.21","6,946,313.22",-27.60713208,153.0890605
426,D0573,CHILTON STREET PARK,GARRO ST,SUNNYBANK HILLS,"505,289.53","6,948,301.53",-27.58920014,153.0535959
427,D1439,CHIPPENDALE ST CEMETERY PARK,HALE ST,BRISBANE,"500,992.97","6,961,954.15",-27.46595543,153.01005
428,D1420,CHRISTIAN AND MARGARET NIELSEN PARK,PARKSIDE CRES,THE GAP,"493,767.27","6,963,145.76",-27.45507229,152.9374815
429,D1905,CHURCH STREET PARK,EAST ST,VALLEY,"503,679.44","6,963,194.04",-27.45454248,153.0371654
430,D2556,CHURCHILL CIRCUIT PARK,CHURCHILL CRCT,BANYO,"507,891.41","6,971,157.81",-27.38284194,153.0798103
431,D1078,CICADA PARK,IRONBARK RD,CHAPEL HILL,"494,238.13","6,958,673.64",-27.49555997,152.9416677
432,D0096,CITY BOTANIC GARDENS,ALICE ST,BRISBANE,"502,966.85","6,960,864.96",-27.47578578,153.0300306
433,D0994,CLARE AVENUE PARK,CLARE AVE,WYNNUM WEST,"515,070.54","6,964,968.06",-27.43866278,153.1524936
434,D1799,CLAREMONT PARADE PARK,VAUCLUSE ST,FOREST LAKE,"497,358.88","6,943,631.41",-27.6313689,152.9732288
435,D1879,CLARENCE STREET PARK,CLARENCE ST,COORPAROO,"505,228.70","6,959,280.13",-27.49008674,153.052932
436,D0910,CLARINA STREET PARK,CLARINA ST,CHAPEL HILL,"496,135.93","6,958,045.79",-27.50123488,152.9608787
437,D0101,CLARK LANE PARK,QUEEN ST,BRISBANE,"503,074.27","6,962,228.34",-27.46347698,153.0311145
438,D0507,CLARK PARK,LUTWYCHE RD,WINDSOR,"503,225.63","6,966,257.20",-27.42710394,153.0326357
439,D1309,CLARRIE BECKINGHAM RESERVE,SATURN CRES,BRIDGEMAN DOWNS,"498,532.69","6,973,169.01",-27.36470665,152.9851627
440,D1649,CLEMBURY PLACE PARK,FORMBY ST,CALAMVALE,"503,522.86","6,944,570.76",-27.6228866,153.0357061
441,D0286,CLIFF STREET PARK,SEYMOUR ST,SANDGATE,"507,238.55","6,978,056.61",-27.32056224,153.0731666
442,D1341,CLIFTON PARK,BOHAIN ST,MOOROOKA,"502,391.21","6,955,316.56",-27.52587763,153.0242149
443,D1136,CLIFTON STREET PARK,FLEURS ST,MOOROOKA,"502,573.18","6,955,583.95",-27.52346325,153.0260571
444,D0585,CLIPPER STREET PARK,CLIPPER ST,INALA,"496,976.36","6,946,902.04",-27.60184148,152.9693596
445,D1488,CLIVEDEN AVENUE PARK (NO.169),STRATHBURN ST,OXLEY,"497,281.57","6,952,850.74",-27.54813817,152.9724659
446,D1488,CLIVEDEN AVENUE PARK (NO.169),STRATHBURN ST,OXLEY,"497,296.63","6,952,763.52",-27.54892559,152.9726183
447,D1488,CLIVEDEN AVENUE PARK (NO.169),STRATHBURN ST,OXLEY,"497,393.71","6,952,911.83",-27.54758689,152.9736018
448,D0322,CLIVEDEN AVENUE RESERVE,CLIVEDEN AVE,OXLEY,"499,202.66","6,952,482.71",-27.55146322,152.9919238
449,D0255,CLIVEDEN PARK,MOORFIELDS ST,FIG TREE POCKET,"495,904.15","6,956,305.50",-27.51776007,152.9599199
450,D1466,CLOVERBROOK PLACE PARK (NO.41),CLOVERBROOK PL,CARINA,"510,237.70","6,959,482.37",-27.48823245,153.1036381
451,D1440,CLYDE STREET PARK,MUSGRAVE RD,RED HILL,"501,267.48","6,962,731.03",-27.45894154,153.0128275
452,D1636,COBLE PARK,ARCHDALE RD,FERNY GROVE,"493,366.26","6,969,460.75",-27.39813181,152.9327247
453,D0678,COL BENNET PARK,TRIANTHA ST,ALGESTER,"502,709.03","6,945,446.72",-27.61498047,153.0274555
454,D1914,COLLEGE ROAD PARK,COLLEGE RD,KARANA DOWNS,"481,398.76","6,952,421.27",-27.55163662,152.8114443
455,D1349,COLLINA CRESCENT PARK,COLLINA CRES,FOREST LAKE,"496,795.04","6,945,848.19",-27.61135505,152.9675194
456,D1294,COLLINGROVE PLACE PARK,COLLINGROVE PL,FOREST LAKE,"496,265.95","6,945,849.80",-27.6113391,152.9621574
457,D1763,COLMSLIE BEACH RESERVE,COLMSLIE RD,MURARRIE,"508,995.57","6,963,612.45",-27.45095493,153.0910332
458,D0035,COLMSLIE RESERVE,LYTTON RD,MORNINGSIDE,"508,140.43","6,963,384.15",-27.45302149,153.0823809
459,D0953,COLORADO AVENUE PARK,FIFTH AVE,BARDON,"497,937.80","6,961,792.45",-27.46741408,152.9791279
460,D1356,COMMUNITY PARK,SOUTHAMPTON RD,CAROLE PARK,"494,020.12","6,945,407.73",-27.61532199,152.9393948
461,D1072,COMPTON ROAD PARK (NO.376),COMPTON RD,RUNCORN,"507,655.16","6,945,205.87",-27.6171359,153.0775851
462,D2010,COMPTON ROAD PARK (NO.484),MILDURA ST,STRETTON,"506,572.69","6,945,813.49",-27.61165607,153.066611
463,D1302,CONFERTA PLACE PARK,CONFERTA PL,FOREST LAKE,"496,560.86","6,945,521.99",-27.61429935,152.9651451
464,D1645,CONNAH CRESCENT PARK,CONNAH CRES,CARINDALE,"510,725.33","6,955,754.95",-27.52187956,153.1086075
465,D0690,CONONDALE PARK,CRESSBROOK ST,EIGHT MILE PLNS,"507,483.95","6,949,402.35",-27.57925185,153.0758238
466,D1569,CONSIDEN PLACE PARK,WEEKES RD,BELLBOWRIE,"489,097.32","6,950,697.85",-27.56753303,152.8895509
467,D1306,CONSTELLATION WAY PARK,CONSTELLATION WAY,WYNNUM,"515,602.28","6,966,125.51",-27.43190164,153.1555656
468,D1548,COOCHIN PLACE PARK,COOCHIN PL,TINGALPA,"513,933.28","6,961,433.79",-27.47058218,153.1410266
469,D1295,COOK STREET PARK,COOK ST,FOREST LAKE,"495,905.42","6,944,919.76",-27.61973426,152.9585004
470,D1258,COOLABAH CRESCENT PARK,COOLABAH CRES,BRIDGEMAN DOWNS,"499,822.87","6,973,137.40",-27.36499285,152.9982088
471,D0653,COOLAROO CRESCENT PARK,SUMMIT PL,MT OMMANEY,"492,867.04","6,953,318.47",-27.54170506,152.9277905
472,D0788,COOLIBAH PARK,DEVENISH ST,SUNNYBANK,"506,436.05","6,949,922.16",-27.57456442,153.0652043
473,D0116,COONARA STREET PARK,COONARA ST,HOLLAND PARK,"506,698.32","6,956,669.22",-27.51365145,153.0678239
474,D0847,COONAWARRA STREET PARK,COONAWARRA ST,SUNNYBANK HILLS,"504,696.49","6,948,201.60",-27.59010453,153.0475873
475,D0436,COORA STREET PARK,GREENWOOD ST,WISHART,"510,582.23","6,951,792.89",-27.55764965,153.1071932
476,D0646,COORPAROO CREEK RESERVE,LACKEY AVE,COORPAROO,"505,470.74","6,958,928.05",-27.49326434,153.0553838
477,D0226,COPPERFIELD STREET PARK,COPPERFIELD ST,GEEBUNG,"504,339.18","6,972,476.19",-27.37095538,153.0438799
478,D0194,CORBIE STREET PARK,CORBIE ST,ASHGROVE,"500,214.22","6,964,924.77",-27.439137,153.0021676
479,D2185,CORBYN STREET PARK,TUFNELL RD,BANYO,"508,319.62","6,970,819.32",-27.38589531,153.0841434
480,D0951,COREEN STREET PARK,COREEN ST,WYNNUM,"516,927.25","6,964,758.69",-27.44053113,153.1712838
481,D1686,CORELLA CRESCENT PARK,CORELLA CRES,TAIGUM,"504,874.65","6,976,211.37",-27.33723182,153.04928
482,D0584,CORMORANT STREET PARK,CORMORANT ST,INALA,"497,083.34","6,947,214.68",-27.59901927,152.9704445
483,D2512,CORONA AVENUE PARK,CORONA AVE,ASHGROVE,"499,968.46","6,964,650.98",-27.4416088,152.9996808
484,D0155,CORRAMULLING PARK,YOORALA ST,THE GAP,"493,738.13","6,963,766.72",-27.4498911,152.9367225
485,D1438,CORYPHA CRESCENT PARK,RAINCLIFFE PL,CALAMVALE,"505,728.22","6,944,553.52",-27.62303474,153.0580587
486,D1828,COVENTRY CIRCUIT PARK,OAKLEY ST,CARINDALE,"512,101.57","6,954,988.18",-27.52879024,153.1225514
487,D1830,COVENTRY PLACE PARK,COVENTRY PL,SUNNYBANK HILLS,"505,326.41","6,946,907.06",-27.60178909,153.0539758
488,D3015,COWIE ROAD PARK,COWIE RD,CARSELDINE,"501,977.32","6,975,991.31",-27.3392258,153.01999
489,D2024,COWLISHAW STREET PARK,COWLISHAW ST,BOWEN HILLS,"504,141.46","6,963,927.37",-27.44813524,153.0419096
490,D0534,COX PARK,RICHARD ST,LOTA,"518,294.59","6,961,585.27",-27.46916298,153.1851675
491,D0397,CRACKNELL ROAD PARK,SHAFTESBURY ST,TARRAGINDI,"504,095.79","6,955,903.57",-27.52057401,153.0414746
492,D1282,CRAWFORD ROAD PARK,CRAWFORD RD,WYNNUM WEST,"514,608.94","6,963,818.04",-27.44905022,153.1478367
493,D0592,CREEK ROAD PARK,CREEK RD,CANNON HILL,"509,937.30","6,960,750.09",-27.47678971,153.1005868
494,D1814,CREEK ROAD PARK (NO.725),LYTTON RD,MURARRIE,"509,577.05","6,962,844.74",-27.45788182,153.0969236
495,D0743,CREEKSIDE STREET PARK,CREEKSIDE ST,KENMORE HILLS,"492,018.31","6,957,684.53",-27.50420526,152.9182601
496,D0733,CRESTHAVEN PARK,BANIKA ST,MANSFIELD,"510,841.65","6,953,925.38",-27.53839583,153.1098019
497,D1638,CRIBB ROAD PARK,CRIBB RD,CARINDALE,"511,876.36","6,955,186.02",-27.52700617,153.1202687
498,D1641,CRICKET STREET PARK,HALE ST,BRISBANE,"501,142.03","6,962,286.70",-27.46295304,153.0115584
499,D0642,CROMARTY STREET PARK,KINGUSSIE ST,KENMORE,"493,171.67","6,956,716.47",-27.51322428,152.9308599
500,D0169,CROSBY PARK,CROSBY RD,ALBION,"504,631.81","6,965,450.09",-27.43438653,153.046866
501,D0173,CROSBY ROAD PARK,CROSBY RD,ASCOT,"505,103.46","6,965,635.86",-27.43270777,153.0516374
502,D0998,CROYDON ROAD PARK,CROYDON RD,PADDINGTON,"498,881.79","6,962,903.19",-27.45738744,152.9886833
503,D0253,CUBBERLA CREEK RESERVE,FIG TREE POCKET RD,CHAPEL HILL,"495,301.82","6,956,544.85",-27.51478267,152.9524281
504,D1344,CUBBERLA STREET PARK,CUBBERLA ST,FIG TREE POCKET,"497,109.92","6,955,005.42",-27.52868561,152.9707325
505,D0643,CURLEW PARK,CURLEW ST,SANDGATE,"507,202.74","6,977,500.81",-27.32558025,153.072808
506,D1347,CURRAJONG STREET PARK,CURRAJONG ST,CALAMVALE,"505,192.05","6,945,168.79",-27.61748237,153.0526216
507,D1459,CURRINGA STREET PARK,WECKER RD,MANSFIELD,"510,285.94","6,954,319.61",-27.5345637,153.1040338
508,D1192,CUSCUS COURT PARK,CUSCUS CT,WYNNUM WEST,"515,267.97","6,962,755.22",-27.45863809,153.1545191
509,D0782,CYRIL SIMS PARK,MARSALA ST,CALAMVALE,"505,907.60","6,945,582.08",-27.61374831,153.0598717
510,D0580,D.J.SHERRINGTON PARK,BLUNDER RD,INALA,"498,658.66","6,947,375.63",-27.59756871,152.9864079
511,D0559,D.M.HENDERSON PARK,MCCULLOUGH ST,MACGREGOR,"507,238.47","6,950,307.01",-27.57108601,153.0733314
512,D1767,DAINTREE CLOSE PARK,DAINTREE CL,FOREST LAKE,"497,527.57","6,944,707.62",-27.62336063,152.9757744
513,D2005,DAINTREE DRIVE PARK (NO.65),DAINTREE DR,PARKINSON,"502,930.97","6,942,493.02",-27.64164538,153.0297121
514,D2005,DAINTREE DRIVE PARK (NO.65),DAINTREE DR,PARKINSON,"503,036.01","6,942,542.88",-27.64119506,153.0307767
515,D0763,DAIRY SWAMP ROAD PARK,CASTLEREA ST,TINGALPA,"513,490.13","6,959,644.77",-27.483404,153.1366085
516,D2065,DALEWOOD PLACE PARK,DALEWOOD PL,MOGGILL,"488,556.30","6,950,180.37",-27.57220025,152.8840652
517,D0494,DAMON ROAD PARK,DAMON RD,LUTWYCHE,"502,580.03","6,966,786.77",-27.42259341,153.0260134
518,D1848,DAMPIER CRESCENT PARK,MACQUARIE WAY,DREWVALE,"505,768.54","6,941,139.75",-27.65385325,153.0584838
519,D1197,DANDELION STREET PARK,WARRIGAL RD,EIGHT MILE PLNS,"508,453.43","6,948,988.24",-27.58298463,153.0856491
520,D2170,DANNENBERG STREET PARK,DANNENBERG ST,BALD HILLS,"501,479.48","6,976,351.80",-27.33597193,153.0149565
521,D1757,DARIEN STREET PARK (NO.29),DARIEN ST,BRIDGEMAN DOWNS,"498,936.10","6,973,904.73",-27.35806483,152.9892426
522,D1497,DARLING POINT PARK (ROAD RESERVE),LOWER ESP,MANLY,"518,473.49","6,964,111.64",-27.44722408,153.1873825
523,D0325,DARRA RECREATION RESERVE,IPSWICH RD,DARRA,"495,423.94","6,949,807.03",-27.57561135,152.953639
524,D0706,DASH STREET PARK,DUGGAN ST,KEPERRA,"495,596.31","6,968,251.95",-27.40909197,152.9554524
525,D1909,DASYURE PLACE PARK,DASYURE PL,WYNNUM WEST,"514,934.57","6,962,433.78",-27.46154368,153.1511489
526,D1478,DAUPHIN TERRACE PARK,FRASER TCE,HIGHGATE HILL,"501,436.64","6,959,262.87",-27.4902519,153.0145437
527,D1491,DAVID & BARBARA ANDERSON PARK,DAVANDER CL,THE GAP,"494,576.19","6,965,424.57",-27.43461399,152.9451203
528,D0490,DAVIDSON STREET PARK,DAVIDSON ST,NEWMARKET,"500,273.61","6,964,880.46",-27.44014795,153.0024866
529,D0347,DAVIES PARK,MONTAGUE RD,WEST END,500432,"6,960,551.01",-27.47862326,153.0043728
530,D0575,DAW ROAD PARK,DAW RD,RUNCORN,"507,605.68","6,948,767.85",-27.58497929,153.0770611
531,D0165,DAWN STREET PARK,KAMBER ST,BARDON,"498,055.07","6,963,333.72",-27.45349972,152.9803173
532,D0964,DEAD MAN'S GULLY PARK,ABARTH ST,CHERMSIDE,"503,043.29","6,970,331.13",-27.39032465,153.0307806
533,D0620,DEAGON LANDS PARK,HICKSON RD,DEAGON,"506,369.06","6,976,563.93",-27.33404272,153.0643857
534,D0620,DEAGON LANDS PARK,HICKSON RD,DEAGON,"506,390.74","6,976,662.21",-27.33315536,153.0646044
535,D0620,DEAGON LANDS PARK,HICKSON RD,DEAGON,"506,553.85","6,976,806.69",-27.33185018,153.0662525
536,D0283,DEAGON SPORTSGROUND PARK,BOARD ST,DEAGON,"505,909.76","6,977,962.87",-27.32141495,153.0597359
537,D0283,DEAGON SPORTSGROUND PARK,BOARD ST,DEAGON,"506,311.55","6,978,014.29",-27.32094886,153.0637968
538,D1373,DEAGON WETLANDS,KEMPSTER ST,SANDGATE,"505,115.86","6,978,636.72",-27.31533452,153.0517084
539,D0275,DECKER PARK,TWENTY-FIFTH AVE,BRIGHTON,"506,349.31","6,981,908.45",-27.28579147,153.0641583
540,D0272,DEERHURST ROAD PARK,DEERHURST RD,BROOKFIELD,"492,108.27","6,958,812.26",-27.49347124,152.921069
541,D0272,DEERHURST ROAD PARK,DEERHURST RD,BROOKFIELD,"492,138.89","6,958,871.08",-27.49275174,152.9208991
542,D1364,DELANEY CIRCUIT PARK,DELANEY CRCT,CARINDALE,"510,744.42","6,955,930.02",-27.52029887,153.1087993
543,D1203,DELAPINE PLACE PARK,DELAPINE PL,SVTN MILE ROCKS,"496,121.52","6,952,976.44",-27.54700051,152.9607166
544,D2092,DELATHIN ROAD PARK,DELATHIN RD,ALGESTER,"503,947.25","6,947,063.90",-27.60037789,153.0399994
545,D0922,DELAVAN STREET PARK,DELAVAN ST,WISHART,"509,635.68","6,951,379.69",-27.56138704,153.0976083
546,D0720,DELBRIDGE PARK,BLUNDER RD,DURACK,"498,711.64","6,948,354.48",-27.58873188,152.9869458
547,D1087,DELFIN STREET PARK,DELFIN DR,MACGREGOR,"506,765.48","6,950,775.42",-27.56685974,153.068537
548,D0929,DELLOW STREET PARK,DELLOW ST,ACACIA RIDGE,"501,523.96","6,948,432.10",-27.58803086,153.0154413
549,D1370,DELPHIN DRIVE PARK,MAINS RD,MACGREGOR,"506,461.42","6,950,885.05",-27.56587148,153.0654561
550,D1131,DENISE STREET PARK (NO.11),DENISE ST,MANLY WEST,"515,974.18","6,961,329.59",-27.47150052,153.1616851
551,D1327,DENISE STREET PARK (NO.12),DENISE ST,MANLY WEST,"515,878.22","6,961,348.91",-27.47132716,153.1607136
552,D1607,DENIVEN STREET PARK,PRATTEN ST,CORINDA,"498,622.31","6,952,690.48",-27.54958702,152.9860456
553,D2012,DENNING ROAD PARK (NO.30),DENNING RD,BRACKEN RIDGE,"501,683.14","6,977,150.59",-27.32876009,153.0170143
554,D1538,DENNIS WEBB PARK,MT GRAVATT-CAPALABA RD,UPR MT GRAVATT,"508,543.24","6,951,875.93",-27.55691442,153.0865385
555,D0441,DENT PARK,ST ACHS ST,NUDGEE,"508,319.00","6,972,886.28",-27.36723457,153.084123
556,D1685,DEPOT ROAD PARK (NO 106),DEPOT RD,DEAGON,"504,681.02","6,976,920.19",-27.33083061,153.0474407
557,D1479,DERBY STREET PARK,DERBY ST,HIGHGATE HILL,"501,661.14","6,959,132.27",-27.49143069,153.0168166
558,D1644,DERVEL STREET PARK,DERVEL ST,CARINDALE,"510,711.28","6,955,648.75",-27.52283839,153.1084662
559,D1878,DESHON STREET PARK,DESHON ST,WOOLLOONGABBA,"504,686.62","6,958,972.99",-27.49286161,153.0474455
560,D0293,DESMOND AVENUE PARK,DESMOND AVE,DEAGON,"505,732.02","6,977,281.08",-27.327571,153.0579424
561,D2062,DESOTO PLACE PARK,CARISBROOK CRCT,FOREST LAKE,"496,215.53","6,944,139.87",-27.62677585,152.9616409
562,D0561,DEVITT PARK,CLINTON ST,COOPERS PLAINS,"503,557.95","6,950,853.66",-27.56616556,153.0360432
563,D1106,DEVLAN STREET PARK,SECAM ST,MANSFIELD,"509,797.85","6,955,107.32",-27.52773334,153.0992209
564,D1139,DEVONSHIRE STREET PARK,DEVONSHIRE ST,ASHGROVE,"498,557.70","6,964,039.18",-27.44713139,152.9854047
565,D0666,DEW STREET PARK,DEW ST,RUNCORN,"507,227.72","6,948,076.06",-27.59122673,153.0732358
566,D1184,DEWBERRY CLOSE PARK,WARRIGAL RD,EIGHT MILE PLNS,"508,489.31","6,948,642.33",-27.58610721,153.0860151
567,D2134,DIANA PLACE PARK,DIANA PL,MANLY WEST,"515,350.27","6,961,205.84",-27.47262484,153.1553716
568,D1113,DIANELLA RESERVE,QUEENS PDE,BRIGHTON,"505,334.57","6,980,342.04",-27.29993769,153.0539114
569,D2177,DIANTHUS STREET (SOUTH) PARK,DIANTHUS ST,WAKERLEY,"515,060.31","6,959,343.36",-27.48944251,153.1524599
570,D1595,DICKINSON CLOSE PARK,BOUNDARY RD,COOPERS PLAINS,"503,891.04","6,950,417.03",-27.57010651,153.0394189
571,D1600,DICKSON STREET PARK,TELEGRAPH RD,BALD HILLS,"501,321.61","6,977,277.39",-27.32761566,153.0133596
572,D1600,DICKSON STREET PARK,TELEGRAPH RD,BALD HILLS,"501,351.87","6,977,516.46",-27.3254573,153.0136652
573,D1600,DICKSON STREET PARK,TELEGRAPH RD,BALD HILLS,"501,410.31","6,977,577.95",-27.32490206,153.0142559
574,D1600,DICKSON STREET PARK,TELEGRAPH RD,BALD HILLS,"501,450.25","6,977,303.61",-27.32737885,153.01466
575,D1600,DICKSON STREET PARK,TELEGRAPH RD,BALD HILLS,"501,454.65","6,977,145.21",-27.32880887,153.0147046
576,D1600,DICKSON STREET PARK,TELEGRAPH RD,BALD HILLS,"501,532.21","6,977,318.46",-27.32724471,153.0154884
577,D1600,DICKSON STREET PARK,TELEGRAPH RD,BALD HILLS,"501,601.09","6,977,177.39",-27.32851818,153.0161849
578,D0789,DIDBROOK STREET PARK,DIDBROOK ST,ROBERTSON,"505,279.62","6,951,055.20",-27.56434053,153.0534834
579,D1079,DILLINGEN STREET PARK,DILLINGEN ST,CHAPEL HILL,"494,061.76","6,958,897.18",-27.49033111,152.9400928
580,D1473,DILLON ROAD PARK,CLARE PL,THE GAP,"493,397.39","6,963,317.92",-27.45362769,152.9331814
581,D0675,DIOSMA STREET PARK,MAZZARD ST,BELLBOWRIE,"488,395.15","6,951,629.99",-27.55911196,152.8824466
582,D0007,DITTMER PARK,LOGAN RD,UPR MT GRAVATT,"507,661.83","6,952,462.80",-27.55162151,153.0776066
583,D0986,DITTON ROAD PARK (NO.127),RYHILL RD,SUNNYBANK HILLS,"504,052.10","6,948,896.67",-27.58383165,153.0410557
584,D0256,DOBELL STREET PARK,DOBELL ST,INDOOROOPILLY,"495,972.53","6,956,388.66",-27.51619489,152.9592189
585,D0352,DOCK STREET PARK,VULTURE ST,SOUTH BRISBANE,"502,640.69","6,960,076.70",-27.48290284,153.0267309
586,D1608,DOLLIS STREET PARK,BEAUDESERT RD,ROCKLEA,"502,136.63","6,952,109.72",-27.55482902,153.0216425
587,D0045,DONALDSON STREET PARK,DONALDSON ST,NORMAN PARK,"505,505.87","6,960,577.62",-27.47837196,153.055732
588,D1844,DONEGAL PLACE PARK,DESBET ST,THE GAP,"494,223.33","6,965,598.66",-27.43304091,152.9415508
589,D0240,DONNA PHILP PARK,STANWORTH RD,BOONDALL,"506,765.13","6,974,217.53",-27.35417605,153.0664178
590,D0756,DONNINGTON STREET PARK NORTH,HELMSLEY CT,CARINDALE,"509,997.98","6,957,050.52",-27.51018879,153.1012315
591,D0818,DONNINGTON STREET PARK SOUTH,CREEK RD,CARINDALE,"509,728.08","6,956,645.73",-27.51384514,153.098502
592,D0892,DOOHAN MOTORCYCLE RACEWAY,LANDERS POCKET RD,EAGLE FARM,"508,871.85","6,970,229.11",-27.39122032,153.0897329
593,D0161,DORRINGTON PARK,MIRRABOOKA RD,ASHGROVE,"498,593.27","6,964,814.25",-27.44013411,152.9857656
594,D1239,DORVILLE ROAD PARK,DORVILLE RD,ASPLEY,"501,856.58","6,974,444.18",-27.35370899,153.0184965
595,D1524,DOUGHBOY PARADE PARK,DOUGHBOY PDE,HEMMANT,"512,168.26","6,963,801.43",-27.4492242,153.1231382
596,D2616,DOULTON STREET PARK,DOULTON ST,CALAMVALE,"504,780.57","6,942,979.33",-27.63724985,153.04846
597,D0492,DOWNEY PARK,NOBLE ST,WILSTON,"502,409.58","6,964,751.39",-27.44070017,153.0243821
598,D0443,DOWNFALL CREEK RESERVE,JEFFERIS ST,VIRGINIA,"505,733.14","6,971,139.92",-27.38241338,153.0575844
599,D1907,DOYLE PLACE PARK (NO.29),DOYLE PL,THE GAP,"493,209.70","6,963,068.77",-27.45587608,152.9312806
600,D1134,DRUMMOND STREET PARK,OLDFIELD RD,SINNAMON PARK,"495,184.09","6,953,207.60",-27.54491065,152.9512227
601,D0327,DUCIE STREET PARK,EBRINGTON ST,DARRA,"495,064.72","6,950,157.51",-27.57244602,152.9500011
602,D1667,DUGGAN STREET PARK,DUGGAN ST,KEPERRA,"495,599.16","6,968,434.04",-27.40744811,152.9554819
603,D0265,DUMBARTON DRIVE PARK,FORTROSE ST,KENMORE,"492,935.76","6,956,924.57",-27.51134431,152.9284725
604,D1881,DUMBURBU PARK,COLLEGE RD,KARANA DOWNS,"481,659.66","6,952,974.02",-27.54690375,152.8142389
605,D0316,DUNLOP PARK,TURNER ST,CORINDA,"498,277.00","6,952,995.28",-27.5468349,152.9825485
606,D0476,DUNMORE PARK,LANG PDE,AUCHENFLOWER,"499,950.68","6,961,039.84",-27.47421021,152.9995008
607,D2093,DUNPHY STREET PARK,DUNPHY ST,SUNNYBANK HILLS,"505,739.27","6,948,020.44",-27.59173597,153.0581542
608,D0855,DURELLA STREET PARK,BLUNDER RD,DURACK,"498,083.30","6,947,818.58",-27.59356914,152.9805783
609,D1124,DURRINGTON PARK,SCHOOL RD,WYNNUM WEST,"515,089.57","6,963,800.09",-27.44946078,153.1530445
610,D0355,DUTTON PARK,GLADSTONE RD,DUTTON PARK,"502,413.08","6,958,567.74",-27.49652608,153.0244298
611,D1511,DYSON AVENUE PARK (NO.50),DYSON AVE,SUNNYBANK,"504,500.37","6,949,762.73",-27.57601155,153.0455942
612,D0588,DYSON AVENUE PARK (NO.93),BEENLEIGH RD,SUNNYBANK,"504,514.97","6,949,539.74",-27.57802458,153.0457431
613,D0669,E C BACKWELL PARK,AMAROO ST,ARCHERFIELD,"501,497.25","6,951,704.23",-27.55849063,153.0151666
614,D0175,E. E. MCCASKIE OVAL,KELVIN GROVE RD,KELVIN GROVE,"501,251.41","6,963,295.71",-27.45384365,153.0126643
615,D0104,E. E. MCCORMICK PLACE,SKEW ST,BRISBANE CITY,"501,458.46","6,961,833.15",-27.4670474,153.0147615
616,D0104,E. E. MCCORMICK PLACE,SKEW ST,BRISBANE CITY,"501,508.40","6,961,902.23",-27.46642375,153.0152668
617,D1902,EAGLE FARM ROAD PARK,EAGLE FARM RD,PINKENBA,"512,029.23","6,967,191.10",-27.41862341,153.1216976
618,D3014,EARNSHAW ROAD PARK,PATONGA ST,BANYO,"508,356.85","6,971,715.48",-27.37780447,153.0845137
619,D1460,EASTGATE STREET PARK,MEADOWLANDS RD,CARINA,"510,350.85","6,959,258.62",-27.49025159,153.1047855
620,D1083,EASTWOOD DRIVE PARK,OCONNOR CRES,MANSFIELD,"510,708.74","6,954,585.50",-27.53243737,153.1084499
621,D2029,EBBERN STREET PARK,EBBERN ST,DARRA,"494,606.94","6,950,650.41",-27.56799446,152.9453656
622,D0532,ED DEVENPORT ROTARY PARK,BELTANA ST,LOTA,"518,720.07","6,961,607.28",-27.46895845,153.1894736
623,D0532,ED DEVENPORT ROTARY PARK,BELTANA ST,LOTA,"518,745.75","6,961,353.00",-27.47125376,153.1897374
624,D1068,EDEN ELM STREET PARK,PARKLANDS ST,CALAMVALE,"505,385.25","6,944,931.34",-27.61962525,153.0545808
625,D1399,EDENBROOKE PARK,EDENBROOKE DR,SVTN MILE ROCKS,"495,222.00","6,952,232.54",-27.55509677,152.9521525
626,D0891,EDINBURGH CASTLE ROAD PARK,EDINBURGH CASTLE RD,WAVELL HEIGHTS,"503,767.46","6,969,058.84",-27.40180922,153.038109
627,D0625,EDWARD KELK PARK,SIBLEY RD,WYNNUM WEST,"514,376.62","6,964,215.63",-27.44546323,153.145481
628,D1248,EDWARDS PARK,CRIBB RD,CARINDALE,"510,548.56","6,955,209.28",-27.52680714,153.1068223
629,D0495,EILDON HILL RESERVE,PALING AVE,WILSTON,"502,305.24","6,965,848.77",-27.43079317,153.0233243
630,D0292,EINBUNPIN LAGOON PARK,LAGOON ST,SANDGATE,"506,730.38","6,978,179.27",-27.31945742,153.0680294
631,D0399,EKIBIN MEMORIAL PARK,LUTZOW ST,TARRAGINDI,"504,499.40","6,955,909.42",-27.52051995,153.0455616
632,D0393,EKIBIN PARK EAST,RIDGE ST,GREENSLOPES,"504,028.57","6,957,119.42",-27.50959767,153.0407899
633,D0393,EKIBIN PARK EAST,RIDGE ST,GREENSLOPES,"504,152.60","6,957,284.78",-27.50810443,153.0420451
634,D1348,EKIBIN PARK SOUTH,EKIBIN RD,ANNERLEY,"503,848.08","6,956,861.69",-27.51192496,153.0389631
635,D1126,EL PASO STREET PARK,PATEN RD,THE GAP,"496,443.07","6,962,990.36",-27.45659625,152.9640029
636,D0516,ELANORA PARK,SAUNDERS PL,WYNNUM,"516,764.62","6,965,999.39",-27.42933215,153.1696211
637,D1216,ELDERSLIE PLACE PARK,CRESSBROOK ST,FOREST LAKE,"495,779.85","6,946,531.92",-27.60517968,152.9572333
638,D0333,ELINGA STREET PARK,ELINGA ST,JINDALEE,"493,973.87","6,954,553.28",-27.53275712,152.9389718
639,D0566,ELIZABETH BRUCE PLAYGROUND PARK,BAMBOO ST,INALA,"497,194.29","6,948,926.84",-27.58356241,152.9715727
640,D2194,ELLEN GROVE DISTRICT SPORTS PARK,CORIANDER PL,ELLEN GROVE,"495,591.23","6,945,724.47",-27.61246859,152.955319
641,D2194,ELLEN GROVE DISTRICT SPORTS PARK,CORIANDER PL,ELLEN GROVE,"495,748.79","6,945,701.31",-27.61267817,152.9569157
642,D0833,ELLERBY ROAD PARK,ELLERBY RD,MOGGILL,"489,473.80","6,949,775.88",-27.57585938,152.8933568
643,D2026,EMERALD PLACE PARK (NO 8),EMERALD PL,MITCHELTON,"496,514.11","6,967,419.20",-27.41661278,152.9647344
644,D0500,EMERSON PARK,CHEVIOT ST,GRANGE,"501,823.80","6,967,218.24",-27.41843023,153.0184511
645,D0094,EMMA MILLER PLACE,ROMA ST,BRISBANE,"502,171.06","6,961,828.63",-27.46708733,153.0219738
646,D0094,EMMA MILLER PLACE,ROMA ST,BRISBANE,"502,275.64","6,961,760.90",-27.46769858,153.0230325
647,D0634,EMMA STREET PARK,EMMA ST,WOOLOOWIN,"504,523.41","6,968,384.27",-27.40789698,153.0457581
648,D1069,EMMETT STREET PARK,WONDALL RD,WYNNUM WEST,"515,128.84","6,961,990.05",-27.46554755,153.1531206
649,D1898,EMUNGERIE GROVE RESERVE,EMUNGERIE GR,KARANA DOWNS,"481,405.83","6,954,528.46",-27.53213801,152.8120891
650,D1898,EMUNGERIE GROVE RESERVE,EMUNGERIE GR,KARANA DOWNS,"481,481.86","6,953,943.78",-27.5371205,152.8134462
651,D1260,ENBROOK PARKLAND,TELEGRAPH RD,BRACKEN RIDGE,"502,902.03","6,976,918.77",-27.33085095,153.0293362
652,D0765,ENDIANDRA STREET PARK,ALGESTER RD,ALGESTER,"503,130.38","6,945,066.57",-27.61841151,153.0317268
653,D1484,ENGLEFIELD ROAD PARK (NOS.35-47),MABEL ST,OXLEY,"497,516.06","6,951,843.93",-27.55722792,152.9748389
654,D0866,ENOGGERA CREEK RESERVE,WATERWORKS RD,ASHGROVE,"497,629.10","6,964,097.50",-27.44660359,152.9760079
655,D0129,ENOGGERA MEMORIAL PARK,HURDCOTTE ST,ENOGGERA,"498,798.54","6,967,687.76",-27.41419212,152.9878455
656,D2332,ENOGGERA RESERVOIR PARK,MT NEBO RD,ENOGGERA RESVR,"492,754.78","6,964,540.13",-27.44259033,152.9266855
657,D2212,EPALA STREET PARK,JOHNSTON ST,CARINA,"511,022.62","6,959,098.10",-27.49169544,153.1115875
658,D0390,ERIC CRESCENT PARK,TENNESSEE AVE,ANNERLEY,"503,029.76","6,955,610.30",-27.52322442,153.0306805
659,D0521,ERIC SHAW PARK,SELINA ST,WYNNUM,"516,231.22","6,965,170.22",-27.43682436,153.1642353
660,D0110,ERIC SIVELL PARK,BOUNDARY RD,COORPAROO,"507,256.07","6,957,741.06",-27.50397208,153.0734649
661,D0110,ERIC SIVELL PARK,BOUNDARY RD,COORPAROO,"507,353.10","6,957,703.39",-27.50431166,153.0744476
662,D0587,ERIDANUS STREET PARK,BELLATRIX ST,INALA,"496,320.11","6,947,112.98",-27.59993553,152.96271
663,D1850,ERNCROFT PLACE PARK,ERNCROFT PL,ROCKLEA,"501,801.98","6,952,191.59",-27.55409045,153.0182527
664,D0880,EROMANGA STREET PARK,RAINSBY CT,CARINDALE,"510,767.23","6,956,870.93",-27.51180424,153.1090219
665,D0984,ESPLANADE PARK,ESPLANADE,YERONGA,"500,249.67","6,956,505.30",-27.5147497,153.0021643
666,D0423,ESSEX ROAD PARK,ESSEX RD,INDOOROOPILLY,"498,245.88","6,958,236.21",-27.49952017,152.9822409
667,D1450,ESTATE PLACE PARK,ESTATE PL,HOLLAND PK WEST,"506,042.13","6,954,193.02",-27.53600947,153.061192
668,D1947,ETON AVENUE PARK,ABERDEEN PDE,BOONDALL,"507,023.20","6,974,581.34",-27.35193863,153.0710099
669,D2078,EUCALYPT PLACE PARK,EUCALYPT PL,BRACKEN RIDGE,"501,564.61","6,977,505.96",-27.32555185,153.0158157
670,D2078,EUCALYPT PLACE PARK,EUCALYPT PL,BRACKEN RIDGE,"501,642.57","6,977,690.97",-27.32388145,153.0166035
671,D1249,EUGENIA STREET PARK,EUGENIA ST,RICHLANDS,"496,515.16","6,948,705.57",-27.58555839,152.9646912
672,D2612,EUNGELLA TERRACE PARK,SANCTUARY DR,FOREST LAKE,"498,107.07","6,943,367.72",-27.63395755,152.9808717
673,D1003,EVA STREET PARK,RIGEL ST,COORPAROO,"506,880.71","6,957,162.34",-27.50919869,153.0696679
674,D1842,EVELYN ROAD PARK,KIANAWAH RD,WYNNUM WEST,"514,290.04","6,963,523.50",-27.45171267,153.144613
675,D1930,EVERGREEN PLACE PARK,ROSEWOOD PL,MURARRIE,"509,096.11","6,962,099.07",-27.46461707,153.0920619
676,D1924,EWAN PLACE PARK,EWAN PL,BRACKEN RIDGE,"502,796.13","6,977,375.61",-27.32672672,153.0282646
677,D1822,EYRE PLACE PARK,LEICHHARDT PL,DREWVALE,"505,981.03","6,941,058.34",-27.65458723,153.0606385
678,D3092,F.R.CATERSON PARK,MT GRAVATT-CAPALABA RD,MANSFIELD,"511,257.93","6,953,463.92",-27.54255843,153.1140221
679,D2495,FABIAN PLACE PARK,FABIAN PL,BRACKEN RIDGE,"504,429.22","6,977,366.80",-27.32680196,153.0447727
680,D0375,FAIRFIELD PARK,FAIRFIELD RD,FAIRFIELD,"502,633.07","6,957,789.94",-27.50354762,153.0266587
681,D0380,FAIRFIELD ROAD PARK (NO.282),FAIRFIELD RD,FAIRFIELD,"502,185.04","6,956,841.94",-27.51210688,153.0221244
682,D1556,FAIRFIELD ROAD PARK (NO.989A),FAIRFIELD RD,YEERONGPILLY,"500,982.43","6,953,922.22",-27.53846732,153.0099499
683,D0377,FAIRVIEW STREET PARK,VICTORIA TCE,ANNERLEY,"502,587.61","6,957,400.77",-27.50706114,153.0261993
684,D0014,FALLON PARK,FALLON ST,EVERTON PARK,"499,054.70","6,968,765.67",-27.40446084,152.9904378
685,D0819,FALSTAFF STREET PARK,FALSTAFF ST,SUNNYBANK HILLS,"505,118.26","6,946,390.76",-27.60645089,153.0518686
686,D2136,FANNINGS CORNER,PAYNE RD,THE GAP,"495,485.38","6,963,788.73",-27.44938576,152.9543137
687,D1997,"FANNY STREET PARK (NOS.17,19&23)",FANNY ST,ANNERLEY,"503,107.63","6,957,137.70",-27.509435,153.0314652
688,D0941,FATHER JACK MADDEN PLACE PARK,TATHRA ST,STAFFORD,"501,720.19","6,968,475.67",-27.40707824,153.0174011
689,D0010,FAULKNER PARK,LEYBOURNE ST,GRACEVILLE,"498,426.21","6,956,201.82",-27.51788675,152.984064
690,D0548,FAUNA PARADE PARK,BOOBOOK ST,ROCKLEA,"501,456.86","6,952,666.97",-27.54979914,153.0147563
691,D1048,FAVERSHAM STREET PARK,FAVERSHAM ST,WOOLLOONGABBA,"503,838.79","6,958,581.02",-27.49640296,153.0388636
692,D1978,FEDERATION STREET PARK,FEDERATION ST,WYNNUM WEST,"515,019.87","6,963,445.95",-27.45240496,153.1519996
693,D0378,FEHLBERG PARK,BRISBANE CSO,YERONGA,"501,822.65","6,956,993.80",-27.51073651,153.0184548
694,D0846,FELDT STREET PARK,FELDT ST,MOOROOKA,"503,135.86","6,954,315.63",-27.53491234,153.0317583
695,D0829,FELSPAR STREET PARK,FELSPAR ST,EIGHT MILE PLNS,"508,377.39","6,949,531.59",-27.57807981,153.0848749
696,D0017,FENWICK PARK,SAMFORD RD,MITCHELTON,"497,151.38","6,967,863.42",-27.41260377,152.9711825
697,D0718,FERGUSON PARK (BRACKEN RIDGE),BARRETT ST,BRACKEN RIDGE,"503,645.79","6,978,342.12",-27.31799894,153.0368506
698,D0132,FERGUSON PARK (ENOGGERA),SAMFORD RD,ENOGGERA,"498,768.37","6,967,047.39",-27.41997341,152.9875396
699,D0066,FERGUSON ROAD PARK,FERGUSON RD,SEVEN HILLS,"507,717.20","6,959,718.97",-27.48611311,153.0781212
700,D2018,FERNDALE PLACE PARK (NO8),FERNDALE PL,UPR KEDRON,"491,810.77","6,967,798.09",-27.41317196,152.917155
701,D2115,FERNWOOD PLACE PARK,FERNWOOD PL,TAIGUM,"504,256.41","6,974,929.74",-27.34880466,153.0430343
702,D0148,FERNY GROVE PICNIC GROUND PARK,SAMFORD RD,FERNY GROVE,"493,969.69","6,968,945.02",-27.40282871,152.939001
703,D1090,FIDDLEWOOD CRESCENT PARK,FIDDLEWOOD CRES,BELLBOWRIE,"488,078.54","6,950,801.48",-27.56658887,152.8792313
704,D1675,FIDDLEWOOD PLACE PARK,ARBOUR ST,BRIDGEMAN DOWNS,"499,295.02","6,972,609.41",-27.36832567,152.9927865
705,D0313,FIFTEEN MILE CORNER,TEESDALE ST,CORINDA,"497,399.96","6,953,182.91",-27.54513962,152.9736657
706,D0954,FIFTH AVENUE PARK,TRISTANIA DR,BARDON,"497,888.39","6,961,475.39",-27.4702764,152.9786272
707,D1018,FIG TREE COMMON PARK,ERROGIE PL,FIG TREE POCKET,"495,504.36","6,955,422.66",-27.52491441,152.9544747
708,D0260,FIG TREE POCKET RIVERSIDE RESERVE,MANDALAY ST,FIG TREE POCKET,"497,325.01","6,953,507.69",-27.54220739,152.9729073
709,D1992,FIG TREE POCKET ROAD PARK (NO.233A),FIG TREE POCKET RD,FIG TREE POCKET,"495,367.21","6,956,058.31",-27.51900178,152.9534064
710,D0996,FIG TREE POINT PARK (ROAD RESERVE),ESPLANADE,LOTA,"519,071.18","6,961,623.04",-27.46881131,153.1930271
711,D0079,FIG TREE RESERVE,EAGLE ST,BRISBANE,"502,926.80","6,961,751.26",-27.46778439,153.0296231
712,D2181,FIGTREE PLACE PARK,FIGTREE PL,WAKERLEY,"514,961.56","6,959,878.78",-27.48460988,153.1514536
713,D0158,FIHELLY STREET PARK,FIHELLY ST,KEPERRA,"496,081.21","6,968,556.64",-27.40634274,152.9603586
714,D1241,FINNEY ROAD PARK,FINNEY RD,INDOOROOPILLY,"497,026.46","6,957,958.91",-27.50202149,152.9698945
715,D0491,FINSBURY PARK,FINSBURY ST,NEWMARKET,"501,455.57","6,964,816.15",-27.44011685,153.0147286
716,D0977,FISHERMAN'S BEND PARK,FISHERMANS BEND,BALMORAL,"506,730.96","6,962,852.61",-27.45782792,153.06812
717,D1034,FITZGERALD STREET PARK,FITZGERALD ST,MORNINGSIDE,"506,664.97","6,960,681.00",-27.47743348,153.0674642
718,D1448,FLAME TREE CRESCENT PARK,FLAME TREE CRES,CARINDALE,"509,817.39","6,956,356.30",-27.51636442,153.0994949
719,D0750,FLAMETREE STREET PARK,FLAMETREE ST,BRIDGEMAN DOWNS,"500,171.77","6,974,908.21",-27.34900566,153.0017367
720,D2140,FLEMING RD (NO 241) PARK,FLEMING RD,HEMMANT,"512,572.79","6,962,494.72",-27.46101741,153.1272454
721,D1118,FLEMING ROAD PARK,WYNNUM RD,TINGALPA,"513,671.53","6,961,966.39",-27.46577656,153.1383713
722,D1140,FLETCHER PARADE PARK (NO.85),FLETCHER PDE,BARDON,"498,556.15","6,963,991.79",-27.44755919,152.985389
723,D0183,FLETCHER PARADE PARK (NOS.161-231),FLETCHER PDE,BARDON,"498,191.61","6,963,630.34",-27.45082198,152.9816995
724,D1255,FLINDERS CRESCENT PARK (NO.56),FLINDERS CRES,FOREST LAKE,"496,575.22","6,945,435.68",-27.61507853,152.9652904
725,D0684,FLOCKTON STREET PARK,LANCHESTER ST,STAFFORD HTS,"500,155.90","6,969,724.17",-27.39580773,153.0015768
726,D1861,FLORENCE PLACE PARK,FLORENCE PL,OXLEY,"496,427.53","6,952,033.34",-27.55551555,152.9638132
727,D1455,FLORIBUNDA PLACE PARK,FLORIBUNDA ST,SUNNYBANK HILLS,"504,601.19","6,947,799.10",-27.59373857,153.0466232
728,D0455,FLOWER STREET PARK,FLOWER ST,NORTHGATE,"506,178.11","6,970,214.23",-27.39136948,153.0624876
729,D0502,FLYNN OVAL PARK,CARTWRIGHT ST,WINDSOR,"503,363.00","6,964,928.94",-27.43909524,153.0340292
730,D0609,FORBES PARK,ILEX ST,INALA,"496,961.51","6,948,618.34",-27.586347,152.9692135
731,D0843,FORD ROAD PARK,FORD RD,BURBANK,"515,186.46","6,948,176.96",-27.59024988,153.1538773
732,D1508,FOREST LAKE BOULEVARD PARK (NO 9A),FOREST LAKE BLVD,FOREST LAKE,"495,065.37","6,946,962.83",-27.60161392,152.950047
733,D1505,FOREST LAKE BOULEVARD PARK (NO.70),FOREST LAKE BLVD,FOREST LAKE,"495,470.43","6,946,074.67",-27.60930659,152.954096
734,D1213,FOREST LAKE LIONS PARK,FOREST LAKE BLVD,FOREST LAKE,"495,253.96","6,946,127.14",-27.60561532,152.9515849
735,D2159,FORMATION STREET PARK (ROAD RESERVE),FORMATION ST,WACOL,"492,811.20","6,946,766.61",-27.60304835,152.9271507
736,D2089,FORMBY ST (NO49) PARK,FORMBY ST,CALAMVALE,"503,525.61","6,944,746.89",-27.62129652,153.0357335
737,D1853,FORMOSA ROAD PARK,FORMOSA RD,GUMDALE,"514,858.34","6,958,691.15",-27.49533281,153.1504233
738,D1853,FORMOSA ROAD PARK,FORMOSA RD,GUMDALE,"514,925.60","6,958,598.01",-27.49617294,153.1511054
739,D1853,FORMOSA ROAD PARK,FORMOSA RD,GUMDALE,"514,984.39","6,958,669.14",-27.49553014,153.1516996
740,D2176,FORT ROAD BUSHLANDS,CLIVEDEN AVE,OXLEY,"496,746.36","6,952,960.71",-27.54714416,152.9670452
741,D0077,FOUNTAIN RESERVE,EAGLE ST,BRISBANE,"502,981.22","6,961,945.58",-27.46602992,153.0301734
742,D1419,FOXTON STREET PARK (NO.130),FOXTON ST,MORNINGSIDE,"507,388.17","6,960,949.52",-27.47500551,153.0747829
743,D0426,FOXTON STREET PARK (NO.41A),FOXTON ST,INDOOROOPILLY,"497,237.97","6,957,768.56",-27.50374039,152.9720355
744,D0308,FRANCIS OUTLOOK PARK,DEWAR TCE,CORINDA,"497,671.60","6,954,106.36",-27.53680331,152.9764188
745,D0309,FRANCIS STREET PARK,FRANCIS ST,CORINDA,"497,466.95","6,953,999.94",-27.53776363,152.974346
746,D0236,FRANK ROBERTS PARK,CHARLOTTE ST,WAVELL HEIGHTS,"505,043.55","6,969,808.14",-27.39504039,153.0510139
747,D0727,FRANK SLEEMAN PARK,ZILLMERE RD,BOONDALL,"505,751.93","6,973,557.52",-27.36131797,153.0587416
748,D0162,FRANK WATERS PARK,DORRINGTON DR,ASHGROVE,"499,186.30","6,965,131.93",-27.43726657,152.9917665
749,D1100,FRANQUIN CRESCENT PARK,WESTPARK PL,KURABY,"509,757.30","6,947,570.51",-27.59577487,153.0988712
750,D0222,FRED CAMPBELL PARK,ZILLMERE RD,ASPLEY,"502,008.90","6,973,857.31",-27.35849187,153.0203127
751,D0975,FRED FRANCIS PARK,BRACKEN RIDGE RD,BRACKEN RIDGE,"503,935.25","6,978,860.93",-27.31331416,153.0397746
752,D0975,FRED FRANCIS PARK,BRACKEN RIDGE RD,BRACKEN RIDGE,"504,208.96","6,978,606.30",-27.31561223,153.042542
753,D0216,FREDERICK ANNAND PARK,WEBSTER RD,CHERMSIDE WEST,"501,933.44","6,971,522.17",-27.37957388,153.0195534
754,D1316,FREE STREET PARK,FREE ST,NEWMARKET,"500,275.88","6,964,353.00",-27.44429899,153.0027917
755,D1202,FREMONT STREET PARK,DELAPINE PL,SVTN MILE ROCKS,"495,975.43","6,952,928.16",-27.54743594,152.9592367
756,D0549,FRENEY STREET PARK,FRENEY ST,ROCKLEA,"501,712.20","6,952,406.63",-27.5521492,153.017343
757,D0854,FRINTON STREET PARK,FRINTON ST,WISHART,"509,684.79","6,952,411.51",-27.55207154,153.0980976
758,D0596,FURSDEN ROAD PARK,FURSDEN RD,CANNON HILL,"510,872.76","6,959,881.37",-27.48462538,153.1100634
759,D1788,FUSCHIA STREET PARK,LYTTON RD,HEMMANT,"511,623.83",6964018,-27.44727372,153.1176267
760,D0773,GABWINA STREET PARK,GABWINA ST,FIG TREE POCKET,"495,388.18","6,955,451.75",-27.52465135,152.9532983
761,D1509,GADDES PARK,EVENWOOD ST,COOPERS PLAINS,"504,100.95","6,949,811.69",-27.57557078,153.0415475
762,D1175,GAFFNEY STREET PARK,GAFFNEY ST,CARINA HEIGHTS,"509,733.90","6,957,889.51",-27.50261638,153.0985509
763,D0785,GAGARRA STREET PARK,GAGARRA ST,EIGHT MILE PLNS,"508,809.66","6,948,978.08",-27.58307406,153.0892584
764,D0915,GAGER STREET PARK,LISTER ST,SUNNYBANK,"505,649.34","6,949,527.92",-27.57812704,153.0572359
765,D1335,GAINSBOROUGH AVENUE PARK,REMBRANDT WAY,MACKENZIE,"512,419.92","6,953,472.48",-27.54247099,153.1257908
766,D0356,GAIR PARK,ANNERLEY RD,DUTTON PARK,"502,702.47","6,958,543.07",-27.49674824,153.0273597
767,D2129,GARDEN ROAD PARK,PROGRESS RD,RICHLANDS,"494,876.23","6,947,539.98",-27.59607596,152.9480804
768,D2117,GARDENS DRIVE (NO 54) PARK,GARDENS DR,WILLAWONG,"503,111.78","6,946,715.06",-27.60352932,153.031534
769,D2116,GARDENS DRIVE (NO 78) PARK,GARDENS DR,WILLAWONG,"503,043.51","6,946,398.58",-27.60638658,153.030843
770,D2106,GARDENS DRIVE PARK (NO 14),GARDENS DR,WILLAWONG,"502,756.50","6,946,684.86",-27.60380272,153.0279338
771,D2105,GARDENS DRIVE PARK (NO 15),GARDENS DR,WILLAWONG,"502,787.25","6,946,277.96",-27.60650178,153.0278057
772,D1160,GARRETT PARK,KALANDA ST,RUNCORN,"508,081.79","6,948,238.36",-27.58975662,153.0818887
773,D0055,GARTH WEBB PARK,STANLEY RD,CAMP HILL,"508,494.77",6959459,-27.48845543,153.0859943
774,D2617,GAWLER CRESCENT PARK,NORRIS RD,BRACKEN RIDGE,"502,404.34","6,977,505.88",-27.32555137,153.0243039
775,D0657,GEEBONG PARK,MURPHY RD,GEEBUNG,"504,001.72","6,972,699.17",-27.36894328,153.0404667
776,D1061,GEMSTONE CRESCENT PARK,WATSON RD,ACACIA RIDGE,"501,585.14","6,947,975.99",-27.59214848,153.0160617
777,D0758,GEORGE BRIDGES PARK,MAYFIELD RD,MOOROOKA,"503,187.27","6,954,382.91",-27.5343049,153.0322788
778,D0518,GEORGE CLAYTON PARK,LOWER ESP,MANLY,"518,293.54","6,964,084.58",-27.44659928,153.1851192
779,D0011,GEORGE SCARLETT PARK,PRATTEN ST,CORINDA,"498,470.82","6,952,770.69",-27.54886271,152.9845113
780,D2082,GHOSTGUM CLOSE PARK,GHOSTGUM CL,TAIGUM,"504,557.76","6,976,115.27",-27.33810058,153.0460767
781,D1091,GIBBINS STREET PARK,GIBBINS ST,SUNNYBANK HILLS,"505,111.80","6,946,582.76",-27.60471762,153.0518023
782,D1198,GIBSON CRESCENT PARK,PIONEER CRES,BELLBOWRIE,"486,865.20","6,951,530.22",-27.55999864,152.8669477
783,D0204,GIBSON PARK,NICOL ST,STAFFORD,"501,405.65","6,967,860.11",-27.4126359,153.0142199
784,D0404,GIBSON PLACE PARK,MONACO ST,HOLLAND PK WEST,"505,710.61","6,955,095.26",-27.5278655,153.0578303
785,D1684,GIBSON PLACE PARK (NO 18),GIBSON PL,BROOKFIELD,"491,833.94","6,957,041.75",-27.51028023,152.917317
786,D0025,GIFFIN PARK,BIRUBI ST,COORPAROO,"505,504.02","6,959,870.50",-27.48475581,153.0557164
787,D0191,GILBERT PARK,FULCHER RD,RED HILL,"499,701.79","6,963,907.97",-27.44831668,152.9969823
788,D0496,GILBERT ROAD PARK,UXBRIDGE ST,GRANGE,"502,199.50","6,966,965.65",-27.42147575,153.0224433
789,D1092,GILDOR SRTEET PARK,GILDOR ST,BOONDALL,"505,597.22","6,974,942.25",-27.34868687,153.0565906
790,D1721,GINKO CLOSE PARK,JAGERA CRCT,TAIGUM,"504,405.38","6,975,825.48",-27.34071728,153.0445373
791,D0009,GIRAWEEN PARK,VERNEY RD EAST,GRACEVILLE,"498,852.96","6,955,798.39",-27.52152929,152.9883848
792,D1692,GLADSTONE STREET PARK (NOS 48-58),GLADSTONE ST,COORPAROO,"505,374.05","6,959,070.67",-27.49197717,153.0544044
793,D0605,GLADSTONE STREET PARK (NOS 63-67),GLADSTONE ST,COORPAROO,"505,250.42","6,959,042.46",-27.49223234,153.0531529
794,D0318,GLADSTONE STREET PARK (NOS.14-18),LINCOLN ST,OXLEY,"497,832.53","6,951,984.57",-27.5559588,152.9780448
795,D1760,GLASSHOUSE CRESCENT PARK,GLASSHOUSE CRES,FOREST LAKE,"497,479.63","6,945,096.23",-27.61814506,152.9744558
796,D0184,GLEN HARDING PARK,COOPERS CAMP RD,ASHGROVE,"497,941.98","6,963,592.43",-27.4511639,152.9791733
797,D2011,GLEN PARADE PARK (NO.6),GLEN PDE,ASHGROVE,"498,377.14","6,963,782.83",-27.44944553,152.9835772
798,D1670,GLEN RETREAT ROAD PARK,FRASERS RD,MITCHELTON,"496,943.10","6,967,399.44",-27.41679217,152.9690744
799,D0881,GLENALWYN STREET PARK,GLENALWYN ST,HOLLAND PARK,"508,335.95","6,956,267.07",-27.51727294,153.0844086
800,D1047,GLENAVON STREET PARK,GLENAVON ST,BELMONT,"512,083.58","6,959,604.30",-27.48711646,153.1223231
801,D0421,GLENCAIRN AVENUE PARK,GLENCAIRN AVE,INDOOROOPILLY,"498,405.19","6,957,004.60",-27.51063923,152.9838522
802,D1800,GLENEAGLES CRESCENT PARK,ALBAN ST,OXLEY,"498,728.68","6,949,744.20",-27.57399232,152.987073
803,D1208,GLENEFER STREET PARK,GLENEFER ST,RUNCORN,"506,852.19","6,947,148.69",-27.59960076,153.069436
804,D1834,GLENELLA STREET PARK,GLENELLA ST,THE GAP,"495,288.69","6,964,487.36",-27.44307779,152.952326
805,D1525,GLENFERRIE PLACE PARK,GLENFERRIE PL,THE GAP,"493,909.24","6,962,803.75",-27.458272,152.9383588
806,D1507,GLENGYLE PLACE PARK,HOMESTEAD WAY,FOREST LAKE,"495,888.51","6,946,159.47",-27.60854236,152.9583332
807,D3126,GLENHAVEN PLACE PARK,BLUNDER RD,DURACK,"498,397.58","6,948,923.16",-27.58359762,152.9837644
808,D0971,GLENLINTON STREET PARK,GLENLINTON ST,HOLLAND PARK,"507,980.58","6,956,390.44",-27.5161613,153.0808093
809,D0057,GLINDEMANN DRIVE PARK,HOLLAND RD,HOLLAND PARK,"506,542.41","6,955,962.54",-27.52003202,153.0662491
810,D0057,GLINDEMANN DRIVE PARK,HOLLAND RD,HOLLAND PARK,"506,727.67","6,955,870.85",-27.52085896,153.0681255
811,D0064,GLINDEMANN PARK,LOGAN RD,HOLLAND PK WEST,"506,828.35","6,955,360.55",-27.52546539,153.069148
812,D1733,GLORIOUS WAY PARK,GLORIOUS WAY,FOREST LAKE,"497,469.00","6,945,262.73",-27.61664184,152.9743484
813,D0250,GOLD CREEK RESERVE,JONES RD,BROOKFIELD,"491,451.79","6,962,286.08",-27.46293239,152.9134846
814,D1562,GOLD CREEK ROAD PARK,GOLD CREEK RD,BROOKFIELD,"486,709.79","6,962,402.80",-27.46184056,152.8654928
815,D1417,GOLDEN OAK CRESCENT PARK,COWELL ST,CARINDALE,"511,449.14","6,955,319.74",-27.52580265,153.1159412
816,D2111,GOLDEN PLACE PARK,BROOKSIDE PL,LOTA,"518,319.25","6,961,912.21",-27.46621106,153.1854122
817,D1169,GOMAN STREET PARK,MORDEN RD,SUNNYBANK HILLS,"503,964.45","6,949,148.35",-27.58155973,153.0401668
818,D1114,GOODENIA RESERVE,MACLEAN ST,BRIGHTON,"505,689.63","6,979,930.09",-27.30365542,153.0575016
819,D2432,GOODMAN PLACE PARK,MURARRIE RD,MURARRIE,"510,877.61","6,962,178.91",-27.46388319,153.1100918
820,D1116,GOODWIN PARK,BRISBANE CSO,YERONGA,"501,351.64","6,957,330.45",-27.50769776,153.0136853
821,D1147,GOOGIE CRESCENT PARK,BORDEAUX ST,EIGHT MILE PLNS,"509,297.68","6,948,904.87",-27.58373172,153.0942035
822,D0807,GOOLMAN STREET PARK,GOOLMAN ST,CHAPEL HILL,"494,058.14","6,958,234.97",-27.49951948,152.9398433
823,D2042,GORDON CRESCENT,GORDON CRES,WAKERLEY,"515,125.07","6,960,354.43",-27.48031387,153.1531029
824,D0202,GORDON PARK PLAYGROUND PARK,KHARTOUM ST,GORDON PARK,"502,740.55","6,967,673.30",-27.41432041,153.0277246
825,D0906,GORDON STREET PARK,CRAIG ST,BRIGHTON,"504,851.39","6,979,923.08",-27.30372195,153.04903
826,D0297,GORDON THOMSON PARK,ROSEBERY TCE,CHELMER,"497,579.07","6,957,111.97",-27.50966872,152.9754877
827,D0839,GORMAN CRINNEN PARK,CONDAMINE ST,RUNCORN,"506,601.19","6,946,238.87",-27.60781572,153.0668975
828,D0103,GOULD ROAD PARK,GOULD RD,HERSTON,"502,036.66","6,964,545.60",-27.44255871,153.020609
829,D1242,GOWAN ROAD PARK,GOWAN RD,CALAMVALE,"505,546.86","6,944,048.09",-27.62914768,153.0567812
830,D0873,GOWER STREET PARK,GOWER ST,TOOWONG,"497,559.50","6,959,922.21",-27.48429799,152.9752953
831,D0303,GRACEVILLE AVENUE PARK,GRACEVILLE AVE,GRACEVILLE,"499,382.06","6,955,363.00",-27.52546029,152.9937424
832,D0300,GRACEVILLE MEMORIAL PARK,OXLEY RD,GRACEVILLE,"497,670.76","6,956,231.93",-27.51761382,152.9764144
833,D0824,GRACEVILLE RIVERSIDE PARKLANDS,NADINE ST,GRACEVILLE,"499,165.97","6,955,717.32",-27.52226139,152.9915545
834,D1035,GRAHAM LORD PARK,NEWNHAM RD,MT GRAVATT EAST,"509,230.27","6,954,547.58",-27.5327906,153.0934774
835,D1764,GRANARD STREET PARK,IPSWICH RD,ROCKLEA,"501,007.00","6,952,018.21",-27.55565645,153.0102002
836,D1615,GRANDVIEW PLACE PARK,GRANDVIEW PL,CARINDALE,"512,062.23","6,956,291.97",-27.51702012,153.1221399
837,D1758,GRANDVIEW ROAD PARK,GRANDVIEW RD,PULLENVALE,"489,803.16","6,954,693.45",-27.53146673,152.8967352
838,D0499,GRANGE FOREST PARK,RAYMONT RD,GRANGE,"501,042.39","6,967,419.75",-27.41661188,153.0105455
839,D0499,GRANGE FOREST PARK,RAYMONT RD,GRANGE,"501,106.75","6,966,936.48",-27.42097476,153.011197
840,D0515,GREEN CAMP ROAD PARK,RICKERTT RD,RANSOME,"516,754.04","6,959,910.29",-27.48430442,153.1695981
841,D1430,GREEN HILL RESERVOIR PARK,RUSSELL TCE,CHAPEL HILL,"495,805.71","6,958,672.98",-27.49557168,152.9575376
842,D1237,GREENDALE WAY PARK,CRIBB RD,CARINDALE,"511,400.15","6,955,953.94",-27.5200776,153.1154391
843,D0002,GREENE PARK,GLENORA ST,WYNNUM,"517,075.83","6,965,251.09",-27.43608394,153.1727803
844,D1290,GREENFERN PLACE PARK,GREENFERN PL,FERNY GROVE,"492,613.37","6,969,108.49",-27.40134619,152.9252823
845,D1389,GREENHILLS PARK,GRAHAM ST,ALDERLEY,"499,974.92","6,966,026.11",-27.42919408,152.9997463
846,D1096,GREENMONT CLOSE PARK,GREENMONT CL,ASHGROVE,"496,739.66","6,963,465.22",-27.45231001,152.9670057
847,D1355,GREENOCK PLACE PARK,GREENOCK PL,FERNY GROVE,"491,875.45","6,968,289.73",-27.40873382,152.9178126
848,D1617,GREENWAYS ESPLANADE PARK,GREENWAYS ESP,PARKINSON,"501,958.19","6,942,428.19",-27.64223241,153.0198508
849,D1617,GREENWAYS ESPLANADE PARK,GREENWAYS ESP,PARKINSON,"502,184.37","6,942,891.19",-27.63562843,153.0207089
850,D0478,GREGORY PARK,BAROONA RD,PADDINGTON,"499,961.57","6,961,866.61",-27.4667461,152.999611
851,D0568,GRENIER PARK,OXLEY ST,ACACIA RIDGE,"501,928.10","6,949,390.76",-27.57937577,153.0195346
852,D0920,GREVILLEA PARK,TOGAR ST,MANSFIELD,"509,412.13","6,954,210.72",-27.53583046,153.0953217
853,D0739,GREY GUM PARK,RODE RD,STAFFORD HTS,"500,270.94","6,970,042.32",-27.39181249,153.0036738
854,D2996,GREY GUMS PARK,ROBINSON PL,KELVIN GROVE,"501,341.20","6,963,539.56",-27.4516421,153.0135727
855,D0159,GRINSTEAD PARK,SHAND ST,ALDERLEY,"500,133.61","6,967,320.38",-27.4175094,153.0013517
856,D0872,GROSS AVENUE PARK,GROSS AVE,HEMMANT,"512,491.46","6,962,727.23",-27.45703557,153.1266026
857,D0802,GROVE PARK,PINETREE PL,RUNCORN,"507,750.06","6,947,107.11",-27.59997129,153.0785347
858,D0156,GROVELY SPORTSGROUND PARK,HANRAN ST,KEPERRA,"495,937.40","6,968,925.62",-27.40301107,152.9589051
859,D1189,GUBBERLEY STREET PARK,FAIRHOLME ST,KENMORE,"494,307.16","6,956,907.07",-27.51098527,152.941958
860,D1189,GUBBERLEY STREET PARK,FAIRHOLME ST,KENMORE,"494,361.20","6,956,960.67",-27.51102511,152.9429056
861,D1019,GUM NUT NOOK,BOULTING ST,MCDOWALL,"498,472.48","6,971,078.70",-27.38357808,152.9845512
862,D2513,GUMDALE STREET PARK,GUMDALE ST,WAKERLEY,"516,454.82","6,959,295.94",-27.48985441,153.1665775
863,D1716,GUMNUT STREET PARK,ROGHAN RD,TAIGUM,"504,691.49","6,975,787.42",-27.34105999,153.0474299
864,D1075,GUS DAVIES PARK,CHARLOCK RD,BALD HILLS,"502,012.62","6,979,538.86",-27.30719784,153.020341
865,D0408,GUYATT PARK,HIRON ST,ST LUCIA,"500,128.20","6,958,912.80",-27.49341302,153.0012979
866,D2145,GYMPIE RD (NO 1) PARK,PARK TCE,KEDRON,"503,544.42","6,967,782.50",-27.41333271,153.0358566
867,D1520,GYMPIE ROAD PARK (NO.998),GYMPIE RD,CHERMSIDE,"502,827.78","6,971,504.68",-27.37973027,153.0285982
868,D2232,HABITAT DRIVE PARK,HABITAT DR,WAKERLEY,"516,070.63","6,959,553.70",-27.48753193,153.1626848
869,D1329,HABITAT PLACE PARK,HABITAT PL,BRIDGEMAN DOWNS,"499,078.85","6,972,368.96",-27.37193005,152.9906848
870,D3115,HABITAT PLACE SOUTH PARK,HABITAT PL,DREWVALE,"505,398.71","6,942,442.43",-27.64209449,153.0547284
871,D1210,HAIR PARK,BEENLEIGH RD,RUNCORN,"508,210.84","6,947,013.18",-27.6008166,153.0832046
872,D1138,HAKEA CRESCENT PARK,HAKEA CRES,CHAPEL HILL,"494,452.21","6,958,018.52",-27.50147522,152.943832
873,D0501,HALFORD PARK,BLANDFORD ST,GRANGE,"500,909.23","6,967,126.13",-27.41926274,153.0091986
874,D0501,HALFORD PARK,BLANDFORD ST,GRANGE,"500,985.84","6,967,028.78",-27.42014156,153.0099737
875,D1648,HALIFAX STREET PARK,MULGRAVE CRES,FOREST LAKE,"497,573.86","6,945,462.01",-27.61484296,152.9754115
876,D0883,HAM ROAD PARK,HAM RD,MANSFIELD,"510,219.99","6,953,233.47",-27.54464711,153.1035116
877,D0168,HAMILTON PARK,KINGSFORD SMITH DR,HAMILTON,"506,462.24","6,964,898.14",-27.43936208,153.0653897
878,D1854,HAMILTON ROAD QUARRY PARK,HAMILTON RD,CHERMSIDE WEST,"500,374.89","6,971,387.22",-27.38079359,153.0037914
879,D1463,HAMISH STREET PARK,MURPHY ST,CALAMVALE,"504,352.80","6,945,008.79",-27.61892979,153.0441164
880,D1755,HAMPSTEAD STREET PARK,HAMPSTEAD ST,FOREST LAKE,"495,500.22","6,943,763.59",-27.6301707,152.9543893
881,D1214,HANCOCK PARK - PINE VILLAGE PARK,HUON PL,FOREST LAKE,"496,111.24","6,945,480.10",-27.61533399,152.9606321
882,D0419,HANDEL STREET PARK,HANDEL ST,INDOOROOPILLY,"499,832.02","6,956,995.18",-27.51072523,152.9982992
883,D0357,HANLON PARK,LINCOLN ST,GREENSLOPES,"504,192.59","6,958,136.49",-27.50041513,153.0424471
884,D2033,HANNAM CRESCENT PARK,HANNAM CRES,FOREST LAKE,"494,914.76","6,944,191.67",-27.62630398,152.9484568
885,D0036,HARDCASTLE PARK,GORDON ST,HAWTHORNE,"505,318.07","6,962,522.97",-27.4608101,153.0538225
886,D0070,HARDGRAVE PARK,PETRIE TCE,BRISBANE,"501,464.10","6,962,346.84",-27.46240985,153.0148179
887,D2061,HARGREAVES ROAD PARK,BURNETT ST,MANLY WEST,"515,345.69","6,961,052.16",-27.47401237,153.1553272
888,D0526,HARMAN'S PARK,CURTIS ST,MANLY,"517,835.47","6,962,567.98",-27.4602972,153.1805062
889,D1321,HAROLD CLOSE PARK,HAROLD CL,SINNAMON PARK,"494,708.03","6,952,521.00",-27.55110743,152.946398
890,D0648,HAROLD DEAN PARK,GAWAIN RD,BRACKEN RIDGE,"503,136.10","6,978,694.90",-27.31481519,153.0316978
891,D0711,HAROLD KIELLY PARK,BRACKEN RIDGE RD,BALD HILLS,"502,149.31","6,979,132.11",-27.31086984,153.0217232
892,D1976,HARRISON CRESCENT PARK,MANNIX PL,FOREST LAKE,"494,562.45","6,944,355.53",-27.6248233,152.9448865
893,D0223,HARRY KIRBY PARK,KIRBY RD,ASPLEY,"502,610.78","6,973,634.45",-27.36050289,153.026399
894,D1256,HATHERTON CRESCENT PARK,DELANEY CRCT,CARINDALE,"510,731.16","6,955,853.71",-27.52098793,153.1086657
895,D1006,HAUGHTON PARK,MABEL ST,OXLEY,"497,442.71","6,951,923.11",-27.55651303,152.9740961
896,D1876,HAVEN ROAD PARK,HAVEN RD,UPR BROOKFIELD,"487,171.62","6,958,895.57",-27.49350803,152.8701297
897,D0887,HAWBRIDGE STREET PARK,HAWBRIDGE ST,CARSELDINE,"501,179.87","6,974,231.15",-27.35511775,153.0119297
898,D0820,HAWERA CRESCENT PARK,KAKANUI ST,ASPLEY,"500,574.71","6,972,916.11",-27.36699048,153.0058116
899,D1993,HAWKESBURY ROAD PARK (NO.222A),HAWKESBURY RD,MOGGILL,"485,424.31","6,950,318.76",-27.57092079,152.8523372
900,D1609,HAWKESBURY ROAD PARK (NO.356A),HAWKESBURY RD,ANSTEAD,"485,194.48","6,951,443.81",-27.56076154,152.8500227
901,D2125,HAWTHORN AVENUE PARK,THE PARKWAY,STRETTON,"506,080.47","6,944,047.38",-27.62760247,153.0616315
902,D0037,HAWTHORNE PARK,RIDING RD,HAWTHORNE,"506,130.10","6,962,204.46",-27.46368217,153.0620424
903,D1135,HAYWAL STREET PARK,HAYWAL ST,TAIGUM,"504,933.72","6,975,205.08",-27.34631653,153.0498812
904,D1871,HAYWAL STREET PARK (NO.55),HAYWAL ST,TAIGUM,"504,959.16","6,974,897.61",-27.34909239,153.0501397
905,D2635,HAZEL STREET PARK,HAZEL ST,HEATHWOOD,"498,885.71","6,943,296.79",-27.63439189,152.9887049
906,D0368,HEATH PARK,HILTON ST,EAST BRISBANE,"505,188.56","6,960,589.06",-27.47826996,153.05252
907,D1387,HEATH STREET PARK,HEATH ST,FOREST LAKE,"496,991.60","6,946,002.11",-27.60996588,152.9695118
908,D0529,HEERS PARK,WONDALL RD,MANLY WEST,"515,976.03","6,962,336.63",-27.46240897,153.1616905
909,D0372,HEFFERAN PARK,ANNERLEY RD,ANNERLEY,"502,902.66","6,958,127.00",-27.50050414,153.0293874
910,D1340,HEILBROMM STREET PARK,HEILBROMM ST,STAFFORD HTS,"501,759.53","6,969,795.39",-27.39516369,153.0177971
911,D0777,HELMSLEY COURT PARK,HELMSLEY CT,CARINDALE,"509,757.84","6,956,799.63",-27.51245558,153.098802
912,D0031,HEMMANT RECREATION RESERVE,DOUGHBOY PDE,HEMMANT,"512,326.93","6,963,650.07",-27.45058918,153.1247454
913,D1487,HENDERSON STREET PARK (NOS.26-28),HENDERSON ST,OXLEY,"497,398.21","6,952,660.45",-27.54985631,152.973647
914,D1056,HENDERSON STREET PARK (NOS.6-14),HOWARD ST,OXLEY,"497,309.15","6,952,635.77",-27.55007897,152.9727448
915,D1056,HENDERSON STREET PARK (NOS.6-14),HOWARD ST,OXLEY,"497,342.28","6,952,717.55",-27.54934072,152.9730806
916,D1333,HENRY CLARKSON PARK,MARSHALL LANE,KENMORE,"494,635.93","6,956,300.51",-27.51698608,152.9456844
917,D0513,HENRY STREET PARK,SHAW RD,WOOLOOWIN,"504,732.50","6,968,490.90",-27.40693362,153.0478729
918,D0536,HERBERT STREET PARK,HERBERT ST,LOTA,"517,593.23","6,960,967.07",-27.47475333,153.1780777
919,D0536,HERBERT STREET PARK,HERBERT ST,LOTA,"517,646.25","6,961,303.35",-27.47171673,153.1786094
920,D0536,HERBERT STREET PARK,HERBERT ST,LOTA,"517,819.59","6,961,081.78",-27.47371477,153.1803672
921,D0536,HERBERT STREET PARK,HERBERT ST,LOTA,"517,854.02","6,961,284.03",-27.47188837,153.1807128
922,D0699,HERCULES STREET PARK,REMORA RD,HAMILTON,"506,903.88","6,964,972.11",-27.43869214,153.069858
923,D1888,HERITAGE PARK,COLLEGE RD,KARANA DOWNS,"483,419.05","6,953,321.80",-27.54378674,152.8320637
924,D1421,HEUSSLER TERRACE PARK (ROAD RESERVE),HEUSSLER TCE,MILTON,"500,388.12","6,962,010.62",-27.46544598,153.0039282
925,D0203,HICKEY PARK,BABARRA ST,STAFFORD,"501,996.17","6,967,608.64",-27.41490549,153.0201942
926,D1988,HIGH STREET PARK (NO.140),HIGH ST,BRIGHTON,"505,861.51","6,980,685.10",-27.29683835,153.0592351
927,D1989,HIGH STREET PARK (NOS.132&134),HIGH ST,BRIGHTON,"505,855.65","6,980,719.62",-27.29652672,153.0591757
928,D2552,HIGHBURY PLACE PARK,LEVITT RD,UPR KEDRON,"492,624.71","6,967,023.67",-27.42016815,152.9253844
929,D0354,HIGHGATE HILL PARK,BELLEVUE ST,HIGHGATE HILL,"501,644.76","6,959,659.94",-27.48666693,153.01665
930,D1026,HIGHGROVE COURT PARK,INWOOD PL,THE GAP,"493,847.80","6,965,672.57",-27.43237198,152.9377515
931,D2143,HIGHLANDS DRIVE PARK,HIGHLANDS DR,CALAMVALE,"504,597.92","6,945,902.10",-27.61086435,153.0465973
932,D2077,HIGHVALE STREET PARK,HIGHVALE ST,EIGHT MILE PLNS,"507,970.84","6,948,927.70",-27.58353409,153.0807599
933,D1434,HILL ROAD PARK,HILL RD,RUNCORN,"507,590.61","6,948,133.06",-27.59062552,153.0767609
934,D1817,HILLTOP PLACE PARK,HILLTOP PL,BANYO,"508,220.61","6,971,884.13",-27.37628271,153.0831349
935,D2141,HINCHINBROOK CIRCUIT PARK,HINCHINBROOK CRCT,FOREST LAKE,"498,074.04","6,942,903.89",-27.6354254,152.9789164
936,D0497,HINKLER PARK,MAIN AVE,WINDSOR,"502,392.82","6,965,702.45",-27.43211405,153.0242107
937,D0310,HIVES PARK,PRIMROSE ST,SHERWOOD,"498,067.18","6,954,337.93",-27.53471333,152.9804255
938,D0610,HOBEN STREET PARK,HOBEN ST,MITCHELTON,"497,305.10","6,967,759.44",-27.41354288,152.9727374
939,D0586,HOCK DAVIS PARK,LAVENDER ST,INALA,"496,533.71","6,947,810.07",-27.59364286,152.9648766
940,D1240,HOFFMAN STREET PARK,DE MILLE ST,MCDOWALL,"499,379.77","6,970,962.05",-27.38463191,152.9937271
941,D1240,HOFFMAN STREET PARK,DE MILLE ST,MCDOWALL,"499,693.57","6,971,178.55",-27.38267748,152.9969009
942,D0913,HOLDEN PARK,HOLDEN DR,SUNNYBANK HILLS,"504,190.62","6,947,637.92",-27.59519502,153.0424636
943,D0810,HOLLYMAN PARK,ALLAMANDA ST,RUNCORN,"507,165.03","6,948,351.97",-27.58873618,153.072599
944,D0624,HOLMEAD PARK,DITMAS ST,WISHART,"508,982.91","6,950,854.27",-27.56613493,153.0909998
945,D0624,HOLMEAD PARK,DITMAS ST,WISHART,"509,142.80","6,950,830.98",-27.5663442,153.0926197
946,D3118,HOLMEAD ROAD PARK,HOLMEAD RD,EIGHT MILE PLNS,"510,101.01","6,949,893.71",-27.57479886,153.1023345
947,D1706,HOME STREET PARK (NO.104),HOME ST,FAIRFIELD,"502,452.74","6,957,659.53",-27.50472532,153.0248332
948,D1706,HOME STREET PARK (NO.104),HOME ST,FAIRFIELD,"502,524.42","6,957,762.24",-27.50379788,153.0255588
949,D1506,HOMESTEAD WAY PARK,HOMESTEAD WAY,FOREST LAKE,"495,858.06","6,946,179.04",-27.60836562,152.9580247
